{"radars":[{"lat":45.9578,"lng":5.32729,"type":"tourelle","vitesse":80,"route":"D1075","commune":"Château-Gaillard","sens":"","id":null,"source":"radars-auto.com"},{"lat":45.88427,"lng":5.16889,"type":"tourelle","vitesse":50,"route":"D1084","commune":"Pérouges","sens":"","id":null,"source":"radars-auto.com"},{"lat":46.14623,"lng":5.63322,"type":"fixe","vitesse":110,"route":"A40","commune":"Les Neyrolles","sens":"","id":null,"source":"radars-auto.com"},{"lat":46.05978,"lng":5.08012,"type":"tourelle","vitesse":80,"route":"D1083","commune":"Marlieux","sens":"","id":null,"source":"radars-auto.com"},{"lat":46.31301,"lng":5.30457,"type":"tourelle","vitesse":80,"route":"D1083","commune":"Bény","sens":"","id":null,"source":"radars-auto.com"},{"lat":46.0489,"lng":4.87083,"type":"tourelle","vitesse":80,"route":"D936","commune":"Saint-Trivier-sur-Moignans","sens":"","id":null,"source":"radars-auto.com"},{"lat":45.88554,"lng":4.91815,"type":"tourelle","vitesse":80,"route":"D1083","commune":"Mionnay","sens":"","id":null,"source":"radars-auto.com"},{"lat":45.8066,"lng":5.77409,"type":"tourelle","vitesse":80,"route":"D992","commune":"Lavours","sens":"","id":null,"source":"radars-auto.com"},{"lat":46.30664,"lng":6.06621,"type":"tourelle","vitesse":70,"route":"D1005","commune":"Cessy","sens":"","id":null,"source":"radars-auto.com"},{"lat":46.18541,"lng":5.10756,"type":"tourelle","vitesse":80,"route":"D936","commune":"Montracol","sens":"","id":null,"source":"radars-auto.com"},{"lat":46.07797,"lng":5.42759,"type":"tourelle","vitesse":50,"route":"D1084","commune":"Poncin","sens":"","id":null,"source":"radars-auto.com"},{"lat":46.41209,"lng":4.92697,"type":"tourelle","vitesse":80,"route":"D933","commune":"Reyssouze","sens":"","id":null,"source":"radars-auto.com"},{"lat":45.92777,"lng":5.10147,"type":"tourelle","vitesse":80,"route":"D4","commune":"Joyeux","sens":"","id":null,"source":"radars-auto.com"},{"lat":46.16118,"lng":5.59936,"type":"tourelle","vitesse":50,"route":"D1084","commune":"Nantua","sens":"","id":null,"source":"radars-auto.com"},{"lat":46.00769,"lng":5.1757,"type":"tourelle","vitesse":80,"route":"D22","commune":"Chalamont","sens":"","id":null,"source":"radars-auto.com"},{"lat":45.8637,"lng":5.1496,"type":"double_face","vitesse":130,"route":"A42","commune":"Pérouges","sens":"","id":null,"source":"radars-auto.com"},{"lat":46.1769,"lng":5.9213,"type":"double_face","vitesse":110,"route":"D884","commune":"Péron","sens":"","id":null,"source":"radars-auto.com"},{"lat":46.26419,"lng":5.01695,"type":"tourelle","vitesse":80,"route":"D1079","commune":"Saint-Genis-sur-Menthon","sens":"","id":null,"source":"radars-auto.com"},{"lat":45.95524,"lng":5.33206,"type":"tourelle","vitesse":50,"route":"D5","commune":"Ambérieu-en-Bugey","sens":"","id":null,"source":"radars-auto.com"},{"lat":46.1363,"lng":4.96018,"type":"tourelle","vitesse":80,"route":"D2","commune":"Châtillon-sur-Chalaronne","sens":"","id":null,"source":"radars-auto.com"},{"lat":45.85199,"lng":5.75311,"type":"tourelle","vitesse":50,"route":"D37","commune":"Culoz-Béon","sens":"","id":null,"source":"radars-auto.com"},{"lat":46.36206,"lng":5.12241,"type":"tourelle","vitesse":80,"route":"D975","commune":"Jayat","sens":"","id":null,"source":"radars-auto.com"},{"lat":45.96463,"lng":5.00513,"type":"tourelle","vitesse":80,"route":"D1083","commune":"Lapeyrouse","sens":"","id":null,"source":"radars-auto.com"},{"lat":45.78017,"lng":5.46982,"type":"tourelle","vitesse":70,"route":"D19","commune":"Briord","sens":"","id":null,"source":"radars-auto.com"},{"lat":45.8505,"lng":5.29765,"type":"tourelle","vitesse":80,"route":"D20","commune":"Lagnieu","sens":"","id":null,"source":"radars-auto.com"},{"lat":46.0991,"lng":5.31017,"type":"tourelle","vitesse":80,"route":"D1075","commune":"Saint-Martin-du-Mont","sens":"","id":null,"source":"radars-auto.com"},{"lat":46.21177,"lng":5.31817,"type":"tourelle","vitesse":50,"route":"D936","commune":"Jasseron","sens":"","id":null,"source":"radars-auto.com"},{"lat":46.15282,"lng":4.99202,"type":"tourelle","vitesse":80,"route":"D936","commune":"Neuville-les-Dames","sens":"","id":null,"source":"radars-auto.com"},{"lat":46.14462,"lng":5.63902,"type":"tourelle","vitesse":70,"route":"D1084","commune":"Les Neyrolles","sens":"","id":null,"source":"radars-auto.com"},{"lat":45.81541,"lng":4.96237,"type":"double_sens","vitesse":null,"route":"A42","commune":"Miribel","sens":"","id":null,"source":"radars-auto.com"},{"lat":45.7774,"lng":5.21045,"type":"voiture","vitesse":50,"route":"D20","commune":"Loyettes","sens":"","id":null,"source":"radars-auto.com"},{"lat":46.0943,"lng":5.87465,"type":"mobile","vitesse":80,"route":"D1206","commune":"Léaz","sens":"","id":null,"source":"radars-auto.com"},{"lat":46.07083,"lng":5.32502,"type":"mobile","vitesse":70,"route":"D1075","commune":"Druillat","sens":"","id":null,"source":"radars-auto.com"},{"lat":45.82096,"lng":5.28218,"type":"mobile","vitesse":80,"route":"D20","commune":"Saint-Vulbas","sens":"","id":null,"source":"radars-auto.com"},{"lat":46.10748,"lng":5.14064,"type":"mobile","vitesse":80,"route":"D1083","commune":"Saint-Paul-de-Varax","sens":"","id":null,"source":"radars-auto.com"},{"lat":46.19243,"lng":5.58436,"type":"mobile","vitesse":50,"route":"D984D","commune":"Montréal-la-Cluse","sens":"","id":null,"source":"radars-auto.com"},{"lat":46.47764,"lng":5.07373,"type":"mobile","vitesse":80,"route":"D975","commune":"Saint-Trivier-de-Courtes","sens":"","id":null,"source":"radars-auto.com"},{"lat":46.3027,"lng":4.86258,"type":"mobile","vitesse":80,"route":"D1079","commune":"Replonges","sens":"","id":null,"source":"radars-auto.com"},{"lat":46.23727,"lng":5.17198,"type":"mobile","vitesse":80,"route":"D1079","commune":"Polliat","sens":"","id":null,"source":"radars-auto.com"},{"lat":49.24503,"lng":3.03585,"type":"fixe","vitesse":70,"route":"N2","commune":"Largny-sur-Automne","sens":"","id":null,"source":"radars-auto.com"},{"lat":49.8383,"lng":3.28444,"type":"tourelle","vitesse":70,"route":"D1029","commune":"Saint-Quentin","sens":"","id":null,"source":"radars-auto.com"},{"lat":49.94761,"lng":3.23862,"type":"tourelle","vitesse":80,"route":"D1044","commune":"Bellicourt","sens":"","id":null,"source":"radars-auto.com"},{"lat":49.46664,"lng":3.34818,"type":"tourelle","vitesse":80,"route":"D1","commune":"Leuilly-sous-Coucy","sens":"","id":null,"source":"radars-auto.com"},{"lat":49.39695,"lng":3.17409,"type":"tourelle","vitesse":80,"route":"N31","commune":"Ressons-le-Long","sens":"","id":null,"source":"radars-auto.com"},{"lat":49.54974,"lng":3.62032,"type":"tourelle","vitesse":80,"route":"N2","commune":"Laon","sens":"","id":null,"source":"radars-auto.com"},{"lat":49.68496,"lng":3.70758,"type":"tourelle","vitesse":50,"route":"N2","commune":"Froidmont-Cohartille","sens":"","id":null,"source":"radars-auto.com"},{"lat":49.36327,"lng":3.48061,"type":"fixe","vitesse":80,"route":"N31","commune":"Ciry-Salsogne","sens":"","id":null,"source":"radars-auto.com"},{"lat":49.21531,"lng":3.37089,"type":"double_sens","vitesse":80,"route":"D1","commune":"Oulchy-le-Château","sens":"","id":null,"source":"radars-auto.com"},{"lat":49.89074,"lng":4.11953,"type":"tourelle","vitesse":80,"route":"D1043","commune":"Saint-Michel","sens":"","id":null,"source":"radars-auto.com"},{"lat":49.3104,"lng":3.63417,"type":"tourelle","vitesse":80,"route":"N31","commune":"Bazoches-et-Saint-Thibaut","sens":"","id":null,"source":"radars-auto.com"},{"lat":49.5177,"lng":3.75305,"type":"tourelle","vitesse":80,"route":"D1044","commune":"Festieux","sens":"","id":null,"source":"radars-auto.com"},{"lat":49.98729,"lng":3.91799,"type":"tourelle","vitesse":80,"route":"N2","commune":"La Flamengrie","sens":"","id":null,"source":"radars-auto.com"},{"lat":49.81823,"lng":3.87696,"type":"tourelle","vitesse":70,"route":"N2","commune":"Gercy","sens":"","id":null,"source":"radars-auto.com"},{"lat":49.69802,"lng":3.27013,"type":"tourelle","vitesse":80,"route":"D1","commune":"Mennessis","sens":"","id":null,"source":"radars-auto.com"},{"lat":49.60717,"lng":3.50454,"type":"tourelle","vitesse":80,"route":"D1044","commune":"Crépy","sens":"","id":null,"source":"radars-auto.com"},{"lat":49.84615,"lng":3.30128,"type":"double_sens","vitesse":50,"route":"","commune":"Saint-Quentin","sens":"","id":null,"source":"radars-auto.com"},{"lat":49.03632,"lng":3.25229,"type":"tourelle","vitesse":70,"route":"D1003","commune":"Coupru","sens":"","id":null,"source":"radars-auto.com"},{"lat":49.52485,"lng":3.75397,"type":"tourelle","vitesse":80,"route":"D1044","commune":"Festieux","sens":"","id":null,"source":"radars-auto.com"},{"lat":49.36406,"lng":3.34499,"type":"double_face","vitesse":110,"route":"N2","commune":"Belleu","sens":"","id":null,"source":"radars-auto.com"},{"lat":49.36417,"lng":3.34497,"type":"double_face","vitesse":110,"route":"N2","commune":"Belleu","sens":"","id":null,"source":"radars-auto.com"},{"lat":49.8934,"lng":3.9107,"type":"tourelle","vitesse":50,"route":"N2","commune":"Étréaupont","sens":"","id":null,"source":"radars-auto.com"},{"lat":49.61844,"lng":3.45892,"type":"tourelle","vitesse":70,"route":"D1044","commune":"Fourdrain","sens":"","id":null,"source":"radars-auto.com"},{"lat":49.93826,"lng":3.2441,"type":"tourelle","vitesse":80,"route":"D1044","commune":"Bellenglise","sens":"","id":null,"source":"radars-auto.com"},{"lat":49.83928,"lng":3.47462,"type":"tourelle","vitesse":70,"route":"D1029","commune":"Thenelles","sens":"","id":null,"source":"radars-auto.com"},{"lat":49.56248,"lng":3.64385,"type":"tourelle","vitesse":80,"route":"N2","commune":"Laon","sens":"","id":null,"source":"radars-auto.com"},{"lat":49.3953,"lng":3.90378,"type":"tourelle","vitesse":50,"route":"D1044","commune":"Berry-au-Bac","sens":"","id":null,"source":"radars-auto.com"},{"lat":48.98648,"lng":3.34411,"type":"mobile","vitesse":80,"route":"D969","commune":"Romeny-sur-Marne","sens":"","id":null,"source":"radars-auto.com"},{"lat":49.05005,"lng":3.35901,"type":"mobile","vitesse":80,"route":"D1003","commune":"Essômes-sur-Marne","sens":"","id":null,"source":"radars-auto.com"},{"lat":49.63337,"lng":3.61826,"type":"mobile","vitesse":80,"route":"D967","commune":"Chéry-lès-Pouilly","sens":"","id":null,"source":"radars-auto.com"},{"lat":49.84262,"lng":3.81084,"type":"mobile","vitesse":80,"route":"D960","commune":"Voulpaix","sens":"","id":null,"source":"radars-auto.com"},{"lat":49.02303,"lng":3.41373,"type":"mobile","vitesse":50,"route":"D1","commune":"Nesles-la-Montagne","sens":"","id":null,"source":"radars-auto.com"},{"lat":49.36172,"lng":3.39484,"type":"mobile","vitesse":80,"route":"N31","commune":"Venizel","sens":"","id":null,"source":"radars-auto.com"},{"lat":49.37398,"lng":3.43805,"type":"mobile","vitesse":80,"route":"N31","commune":"Sermoise","sens":"","id":null,"source":"radars-auto.com"},{"lat":49.68958,"lng":3.35286,"type":"mobile","vitesse":70,"route":"D1044","commune":"Travecy","sens":"","id":null,"source":"radars-auto.com"},{"lat":49.75628,"lng":3.97031,"type":"mobile","vitesse":80,"route":"D966","commune":"Braye-en-Thiérache","sens":"","id":null,"source":"radars-auto.com"},{"lat":49.95026,"lng":4.06507,"type":"mobile","vitesse":80,"route":"D1043","commune":"Mondrepuis","sens":"","id":null,"source":"radars-auto.com"},{"lat":49.55997,"lng":3.59284,"type":"mobile","vitesse":80,"route":"D1044","commune":"Laon","sens":"","id":null,"source":"radars-auto.com"},{"lat":46.1701,"lng":3.45741,"type":"fixe","vitesse":50,"route":"D2209","commune":"Creuzier-le-Neuf","sens":"","id":null,"source":"radars-auto.com"},{"lat":46.2686,"lng":3.48918,"type":"tourelle","vitesse":80,"route":"N7","commune":"Saint-Gérand-le-Puy","sens":"","id":null,"source":"radars-auto.com"},{"lat":46.3455,"lng":3.2857,"type":"tourelle","vitesse":90,"route":"D2009","commune":"Contigny","sens":"","id":null,"source":"radars-auto.com"},{"lat":46.3182,"lng":2.62199,"type":"tourelle","vitesse":70,"route":"D2144","commune":"Lavault-Sainte-Anne","sens":"","id":null,"source":"radars-auto.com"},{"lat":46.35551,"lng":2.80366,"type":"double_face","vitesse":130,"route":"A71","commune":"Doyet","sens":"","id":null,"source":"radars-auto.com"},{"lat":46.32202,"lng":2.8673,"type":"tourelle","vitesse":90,"route":"D2371","commune":"Saint-Bonnet-de-Four","sens":"","id":null,"source":"radars-auto.com"},{"lat":46.59111,"lng":3.47694,"type":"double_sens","vitesse":90,"route":"D779","commune":"Lusigny","sens":"","id":null,"source":"radars-auto.com"},{"lat":46.58851,"lng":2.61694,"type":"tourelle","vitesse":90,"route":"D2144","commune":"Meaulne-Vitray","sens":"","id":null,"source":"radars-auto.com"},{"lat":46.24846,"lng":3.69654,"type":"tourelle","vitesse":90,"route":"D990","commune":"Droiturier","sens":"","id":null,"source":"radars-auto.com"},{"lat":46.18967,"lng":3.48827,"type":"tourelle","vitesse":90,"route":"D907","commune":"Bost","sens":"","id":null,"source":"radars-auto.com"},{"lat":46.083,"lng":3.46103,"type":"double_sens","vitesse":90,"route":"D906","commune":"Abrest","sens":"","id":null,"source":"radars-auto.com"},{"lat":46.15508,"lng":3.41343,"type":"tourelle","vitesse":50,"route":"D27","commune":"Creuzier-le-Vieux","sens":"","id":null,"source":"radars-auto.com"},{"lat":46.38116,"lng":3.29545,"type":"fixe","vitesse":90,"route":"D2009","commune":"Monétay-sur-Allier","sens":"","id":null,"source":"radars-auto.com"},{"lat":46.31625,"lng":3.32492,"type":"tourelle","vitesse":90,"route":"D46","commune":"Saint-Pourçain-sur-Sioule","sens":"","id":null,"source":"radars-auto.com"},{"lat":46.14,"lng":3.4153,"type":"urbain","vitesse":50,"route":"","commune":"Vichy","sens":"","id":null,"source":"radars-auto.com"},{"lat":46.17063,"lng":3.39711,"type":"urbain","vitesse":50,"route":"D6","commune":"Charmeil","sens":"","id":null,"source":"radars-auto.com"},{"lat":46.34203,"lng":2.63203,"type":"tourelle","vitesse":50,"route":"D2371","commune":"Montluçon","sens":"","id":null,"source":"radars-auto.com"},{"lat":46.53661,"lng":3.7021,"type":"mobile","vitesse":130,"route":"A79","commune":"Dompierre-sur-Besbre","sens":"","id":null,"source":"radars-auto.com"},{"lat":46.11978,"lng":3.36238,"type":"mobile","vitesse":90,"route":"D906","commune":"Espinasse-Vozelle","sens":"","id":null,"source":"radars-auto.com"},{"lat":46.441,"lng":3.2005,"type":"mobile","vitesse":130,"route":"A79","commune":"Cressanges","sens":"","id":null,"source":"radars-auto.com"},{"lat":43.8855,"lng":5.86385,"type":"double_sens","vitesse":80,"route":"D4096","commune":"Villeneuve","sens":"","id":null,"source":"radars-auto.com"},{"lat":43.85749,"lng":5.83215,"type":"tourelle","vitesse":80,"route":"D4096","commune":"Volx","sens":"","id":null,"source":"radars-auto.com"},{"lat":44.11615,"lng":5.99331,"type":"tourelle","vitesse":80,"route":"N85","commune":"Aubignosc","sens":"","id":null,"source":"radars-auto.com"},{"lat":44.07631,"lng":6.01977,"type":"tourelle","vitesse":80,"route":"N85","commune":"L\\'Escale","sens":"","id":null,"source":"radars-auto.com"},{"lat":44.1972,"lng":5.94935,"type":"double_face","vitesse":110,"route":"A51","commune":"Sisteron","sens":"","id":null,"source":"radars-auto.com"},{"lat":44.0481,"lng":6.1394,"type":"fixe","vitesse":80,"route":"N85","commune":"Aiglun","sens":"","id":null,"source":"radars-auto.com"},{"lat":43.9628,"lng":6.7399,"type":"double_sens","vitesse":80,"route":"N202","commune":"Saint-Benoît","sens":"","id":null,"source":"radars-auto.com"},{"lat":44.05889,"lng":6.20679,"type":"tourelle","vitesse":80,"route":"N85","commune":"Digne-les-Bains","sens":"","id":null,"source":"radars-auto.com"},{"lat":43.85706,"lng":5.60381,"type":"double_sens","vitesse":70,"route":"D4100","commune":"Céreste","sens":"","id":null,"source":"radars-auto.com"},{"lat":44.3969,"lng":6.47924,"type":"fixe","vitesse":80,"route":"D900","commune":"Méolans-Revel","sens":"","id":null,"source":"radars-auto.com"},{"lat":43.89681,"lng":5.83067,"type":"tourelle","vitesse":80,"route":"D13","commune":"Villeneuve","sens":"","id":null,"source":"radars-auto.com"},{"lat":43.96054,"lng":6.47919,"type":"tourelle","vitesse":80,"route":"N202","commune":"Moriez","sens":"","id":null,"source":"radars-auto.com"},{"lat":44.26024,"lng":5.8638,"type":"tourelle","vitesse":80,"route":"D4075","commune":"Mison","sens":"","id":null,"source":"radars-auto.com"},{"lat":43.82802,"lng":5.78718,"type":"urbain","vitesse":50,"route":"D4096","commune":"Manosque","sens":"","id":null,"source":"radars-auto.com"},{"lat":43.95419,"lng":6.85802,"type":"tourelle","vitesse":70,"route":"D4202","commune":"Entrevaux","sens":"","id":null,"source":"radars-auto.com"},{"lat":43.81295,"lng":5.91437,"type":"mobile","vitesse":80,"route":"D6","commune":"Valensole","sens":"","id":null,"source":"radars-auto.com"},{"lat":43.85953,"lng":5.63492,"type":"mobile","vitesse":80,"route":"D4100","commune":"Reillanne","sens":"","id":null,"source":"radars-auto.com"},{"lat":44.45784,"lng":6.24344,"type":"mobile","vitesse":80,"route":"D900b","commune":"Ubaye-Serre-Ponçon","sens":"","id":null,"source":"radars-auto.com"},{"lat":44.0361,"lng":6.10975,"type":"mobile","vitesse":50,"route":"N85","commune":"Mallemoisson","sens":"","id":null,"source":"radars-auto.com"},{"lat":43.6658,"lng":7.20725,"type":"tourelle","vitesse":70,"route":"M6098","commune":"Nice","sens":"","id":null,"source":"radars-auto.com"},{"lat":43.73445,"lng":7.25138,"type":"fixe","vitesse":90,"route":"A8","commune":"Nice","sens":"","id":null,"source":"radars-auto.com"},{"lat":43.68558,"lng":7.19769,"type":"tourelle","vitesse":70,"route":"M6202","commune":"Nice","sens":"","id":null,"source":"radars-auto.com"},{"lat":43.65766,"lng":7.18405,"type":"tourelle","vitesse":50,"route":"M6098","commune":"Saint-Laurent-du-Var","sens":"","id":null,"source":"radars-auto.com"},{"lat":43.65826,"lng":7.0741,"type":"double_sens","vitesse":80,"route":"D2085","commune":"Roquefort-les-Pins","sens":"","id":null,"source":"radars-auto.com"},{"lat":43.65572,"lng":7.16153,"type":"fixe","vitesse":50,"route":"","commune":"Cagnes-sur-Mer","sens":"","id":null,"source":"radars-auto.com"},{"lat":43.65794,"lng":7.18499,"type":"tourelle","vitesse":50,"route":"M6098","commune":"Saint-Laurent-du-Var","sens":"","id":null,"source":"radars-auto.com"},{"lat":43.75808,"lng":7.47091,"type":"fixe","vitesse":50,"route":"D52","commune":"Roquebrune-Cap-Martin","sens":"","id":null,"source":"radars-auto.com"},{"lat":43.7769,"lng":7.27639,"type":"fixe","vitesse":70,"route":"D19","commune":"Tourrette-Levens","sens":"","id":null,"source":"radars-auto.com"},{"lat":43.6431,"lng":7.13339,"type":"fixe","vitesse":110,"route":"A8","commune":"Villeneuve-Loubet","sens":"","id":null,"source":"radars-auto.com"},{"lat":43.7001,"lng":7.29604,"type":"tourelle","vitesse":50,"route":"M6007","commune":"Nice","sens":"","id":null,"source":"radars-auto.com"},{"lat":43.66072,"lng":7.15799,"type":"double_face","vitesse":90,"route":"A8","commune":"Cagnes-sur-Mer","sens":"","id":null,"source":"radars-auto.com"},{"lat":43.69392,"lng":7.25688,"type":"urbain","vitesse":50,"route":"","commune":"Nice","sens":"","id":null,"source":"radars-auto.com"},{"lat":43.55051,"lng":6.9937,"type":"urbain","vitesse":null,"route":"","commune":"Cannes","sens":"","id":null,"source":"radars-auto.com"},{"lat":43.55072,"lng":6.99898,"type":"feu_rouge","vitesse":50,"route":"","commune":"Cannes","sens":"","id":null,"source":"radars-auto.com"},{"lat":43.70085,"lng":7.28684,"type":"feu_rouge","vitesse":50,"route":"","commune":"Nice","sens":"","id":null,"source":"radars-auto.com"},{"lat":43.65603,"lng":7.15469,"type":"urbain","vitesse":50,"route":"M6007","commune":"Cagnes-sur-Mer","sens":"","id":null,"source":"radars-auto.com"},{"lat":43.78378,"lng":7.51623,"type":"fixe","vitesse":50,"route":"D6007","commune":"Menton","sens":"","id":null,"source":"radars-auto.com"},{"lat":43.6564,"lng":7.15545,"type":"feu_rouge","vitesse":null,"route":"M6007","commune":"Cagnes-sur-Mer","sens":"","id":null,"source":"radars-auto.com"},{"lat":43.70065,"lng":7.28708,"type":"feu_rouge","vitesse":null,"route":"","commune":"Nice","sens":"","id":null,"source":"radars-auto.com"},{"lat":43.70698,"lng":7.27951,"type":"fixe","vitesse":50,"route":"","commune":"Nice","sens":"","id":null,"source":"radars-auto.com"},{"lat":43.69239,"lng":7.24309,"type":"tourelle","vitesse":70,"route":"","commune":"Nice","sens":"","id":null,"source":"radars-auto.com"},{"lat":43.71283,"lng":7.27153,"type":"tourelle","vitesse":50,"route":"","commune":"Nice","sens":"","id":null,"source":"radars-auto.com"},{"lat":43.716,"lng":7.2824,"type":"fixe","vitesse":50,"route":"","commune":"Nice","sens":"","id":null,"source":"radars-auto.com"},{"lat":43.65667,"lng":7.17895,"type":"urbain","vitesse":70,"route":"D6098","commune":"Saint-Laurent-du-Var","sens":"","id":null,"source":"radars-auto.com"},{"lat":43.65654,"lng":7.17823,"type":"feu_rouge","vitesse":50,"route":"D6098","commune":"Saint-Laurent-du-Var","sens":"","id":null,"source":"radars-auto.com"},{"lat":43.6505,"lng":7.15148,"type":"urbain","vitesse":50,"route":"D6098","commune":"Cagnes-sur-Mer","sens":"","id":null,"source":"radars-auto.com"},{"lat":43.72526,"lng":7.40057,"type":"urbain","vitesse":50,"route":"M6007","commune":"Cap-d\\'Ail","sens":"","id":null,"source":"radars-auto.com"},{"lat":43.73121,"lng":7.28636,"type":"urbain","vitesse":50,"route":"","commune":"Nice","sens":"","id":null,"source":"radars-auto.com"},{"lat":43.73113,"lng":7.2867,"type":"urbain","vitesse":50,"route":"","commune":"Nice","sens":"","id":null,"source":"radars-auto.com"},{"lat":43.70037,"lng":7.25131,"type":"feu_rouge","vitesse":50,"route":"","commune":"Nice","sens":"","id":null,"source":"radars-auto.com"},{"lat":43.65038,"lng":7.15147,"type":"feu_rouge","vitesse":50,"route":"D6098","commune":"Cagnes-sur-Mer","sens":"","id":null,"source":"radars-auto.com"},{"lat":43.65445,"lng":7.15812,"type":"urbain","vitesse":50,"route":"D6098","commune":"Cagnes-sur-Mer","sens":"","id":null,"source":"radars-auto.com"},{"lat":43.57186,"lng":7.1074,"type":"urbain","vitesse":50,"route":"","commune":"Antibes","sens":"","id":null,"source":"radars-auto.com"},{"lat":43.78373,"lng":7.51561,"type":"fixe","vitesse":50,"route":"D6007","commune":"Menton","sens":"","id":null,"source":"radars-auto.com"},{"lat":43.6601,"lng":7.10272,"type":"fixe","vitesse":70,"route":"D2085","commune":"Villeneuve-Loubet","sens":"","id":null,"source":"radars-auto.com"},{"lat":43.79722,"lng":7.48346,"type":"fixe","vitesse":110,"route":"A8","commune":"Menton","sens":"","id":null,"source":"radars-auto.com"},{"lat":43.73273,"lng":7.29564,"type":"fixe","vitesse":110,"route":"A8","commune":"La Trinité","sens":"","id":null,"source":"radars-auto.com"},{"lat":43.75917,"lng":7.46637,"type":"fixe","vitesse":50,"route":"D52","commune":"Roquebrune-Cap-Martin","sens":"","id":null,"source":"radars-auto.com"},{"lat":43.6808,"lng":7.12876,"type":"tourelle","vitesse":70,"route":"D336","commune":"Saint-Paul-de-Vence","sens":"","id":null,"source":"radars-auto.com"},{"lat":43.7292,"lng":7.36881,"type":"troncon","vitesse":70,"route":"M6007","commune":"Èze","sens":"","id":null,"source":"radars-auto.com"},{"lat":43.73896,"lng":7.41244,"type":"tourelle","vitesse":50,"route":"D6007","commune":"Beausoleil","sens":"","id":null,"source":"radars-auto.com"},{"lat":43.71051,"lng":7.20174,"type":"double_face","vitesse":90,"route":"A8","commune":"Nice","sens":"","id":null,"source":"radars-auto.com"},{"lat":43.75458,"lng":7.44134,"type":"tourelle","vitesse":50,"route":"D6007","commune":"Roquebrune-Cap-Martin","sens":"","id":null,"source":"radars-auto.com"},{"lat":43.74851,"lng":7.42493,"type":"tourelle","vitesse":50,"route":"D6007","commune":"Beausoleil","sens":"","id":null,"source":"radars-auto.com"},{"lat":43.74383,"lng":7.4211,"type":"tourelle","vitesse":50,"route":"D6007","commune":"Beausoleil","sens":"","id":null,"source":"radars-auto.com"},{"lat":43.75762,"lng":7.44895,"type":"tourelle","vitesse":50,"route":"D6007","commune":"Roquebrune-Cap-Martin","sens":"","id":null,"source":"radars-auto.com"},{"lat":43.76061,"lng":7.47539,"type":"tourelle","vitesse":50,"route":"D6007","commune":"Roquebrune-Cap-Martin","sens":"","id":null,"source":"radars-auto.com"},{"lat":43.55048,"lng":6.99201,"type":"tourelle","vitesse":50,"route":"","commune":"Cannes","sens":"","id":null,"source":"radars-auto.com"},{"lat":43.54903,"lng":6.9908,"type":"tourelle","vitesse":50,"route":"","commune":"Cannes","sens":"","id":null,"source":"radars-auto.com"},{"lat":43.5476,"lng":7.05213,"type":"tourelle","vitesse":50,"route":"","commune":"Cannes","sens":"","id":null,"source":"radars-auto.com"},{"lat":43.55968,"lng":6.96828,"type":"tourelle","vitesse":50,"route":"","commune":"Cannes","sens":"","id":null,"source":"radars-auto.com"},{"lat":43.53923,"lng":7.03589,"type":"tourelle","vitesse":50,"route":"","commune":"Cannes","sens":"","id":null,"source":"radars-auto.com"},{"lat":43.60234,"lng":7.01786,"type":"tourelle","vitesse":50,"route":"D35","commune":"Mougins","sens":"","id":null,"source":"radars-auto.com"},{"lat":43.68665,"lng":7.23785,"type":"mobile","vitesse":50,"route":"","commune":"Nice","sens":"","id":null,"source":"radars-auto.com"},{"lat":44.73787,"lng":4.64332,"type":"tourelle","vitesse":90,"route":"D104","commune":"Coux","sens":"","id":null,"source":"radars-auto.com"},{"lat":45.05904,"lng":4.84128,"type":"fixe","vitesse":50,"route":"D86","commune":"Tournon-sur-Rhône","sens":"","id":null,"source":"radars-auto.com"},{"lat":44.4476,"lng":4.6846,"type":"tourelle","vitesse":90,"route":"D86","commune":"Viviers","sens":"","id":null,"source":"radars-auto.com"},{"lat":45.28777,"lng":4.73297,"type":"tourelle","vitesse":90,"route":"D820","commune":"Peaugres","sens":"","id":null,"source":"radars-auto.com"},{"lat":44.62147,"lng":4.39506,"type":"tourelle","vitesse":70,"route":"N102","commune":"Aubenas","sens":"","id":null,"source":"radars-auto.com"},{"lat":44.9412,"lng":4.78695,"type":"tourelle","vitesse":90,"route":"D533","commune":"Saint-Péray","sens":"","id":null,"source":"radars-auto.com"},{"lat":44.70529,"lng":4.65445,"type":"tourelle","vitesse":70,"route":"D2","commune":"Chomérac","sens":"","id":null,"source":"radars-auto.com"},{"lat":44.47492,"lng":4.35959,"type":"tourelle","vitesse":50,"route":"D579","commune":"Pradons","sens":"","id":null,"source":"radars-auto.com"},{"lat":44.52665,"lng":4.33866,"type":"tourelle","vitesse":90,"route":"D104","commune":"Vinezac","sens":"","id":null,"source":"radars-auto.com"},{"lat":44.30612,"lng":4.61325,"type":"double_sens","vitesse":50,"route":"D86","commune":"Saint-Just-d\\'Ardèche","sens":"","id":null,"source":"radars-auto.com"},{"lat":44.5726,"lng":4.62354,"type":"tourelle","vitesse":70,"route":"N102","commune":"Aubignas","sens":"","id":null,"source":"radars-auto.com"},{"lat":44.43257,"lng":4.18985,"type":"tourelle","vitesse":50,"route":"D104A","commune":"Les Assions","sens":"","id":null,"source":"radars-auto.com"},{"lat":44.63298,"lng":4.745,"type":"passage_niveau","vitesse":null,"route":"D86","commune":"Meysse","sens":"","id":null,"source":"radars-auto.com"},{"lat":44.82357,"lng":4.66264,"type":"tourelle","vitesse":50,"route":"D120","commune":"Dunière-sur-Eyrieux","sens":"","id":null,"source":"radars-auto.com"},{"lat":44.63228,"lng":4.74409,"type":"passage_niveau","vitesse":null,"route":"D86","commune":"Meysse","sens":"","id":null,"source":"radars-auto.com"},{"lat":45.02477,"lng":4.6763,"type":"troncon","vitesse":90,"route":"D534","commune":"Boucieu-le-Roi","sens":"","id":null,"source":"radars-auto.com"},{"lat":44.72031,"lng":4.13428,"type":"tourelle","vitesse":50,"route":"D160","commune":"Le Roux","sens":"","id":null,"source":"radars-auto.com"},{"lat":44.7093,"lng":4.681,"type":"tourelle","vitesse":70,"route":"D2","commune":"Chomérac","sens":"","id":null,"source":"radars-auto.com"},{"lat":44.67167,"lng":4.19967,"type":"mobile","vitesse":80,"route":"N102","commune":"Thueyts","sens":"","id":null,"source":"radars-auto.com"},{"lat":44.78646,"lng":4.77066,"type":"mobile","vitesse":70,"route":"D86","commune":"La Voulte-sur-Rhône","sens":"","id":null,"source":"radars-auto.com"},{"lat":50.0177,"lng":4.72573,"type":"double_sens","vitesse":50,"route":"D8051","commune":"Fépin","sens":"","id":null,"source":"radars-auto.com"},{"lat":49.74895,"lng":4.70325,"type":"double_face","vitesse":90,"route":"N43","commune":"Charleville-Mezières","sens":"","id":null,"source":"radars-auto.com"},{"lat":49.6754,"lng":5.0924,"type":"tourelle","vitesse":80,"route":"D8043","commune":"Pouru-Saint-Remy","sens":"","id":null,"source":"radars-auto.com"},{"lat":49.53421,"lng":4.37612,"type":"tourelle","vitesse":80,"route":"D985","commune":"Rethel","sens":"","id":null,"source":"radars-auto.com"},{"lat":49.8906,"lng":4.63058,"type":"tourelle","vitesse":80,"route":"D988","commune":"Les Mazures","sens":"","id":null,"source":"radars-auto.com"},{"lat":49.6913,"lng":4.91724,"type":"double_face","vitesse":110,"route":"N43","commune":"Sedan","sens":"","id":null,"source":"radars-auto.com"},{"lat":49.39837,"lng":4.71815,"type":"tourelle","vitesse":80,"route":"D946","commune":"Vouziers","sens":"","id":null,"source":"radars-auto.com"},{"lat":49.522,"lng":4.36315,"type":"double_face","vitesse":110,"route":"N51","commune":"Rethel","sens":"","id":null,"source":"radars-auto.com"},{"lat":49.81747,"lng":4.58584,"type":"tourelle","vitesse":50,"route":"N43","commune":"Lonny","sens":"","id":null,"source":"radars-auto.com"},{"lat":49.8632,"lng":4.6295,"type":"tourelle","vitesse":80,"route":"D988","commune":"Renwez","sens":"","id":null,"source":"radars-auto.com"},{"lat":49.60046,"lng":4.23212,"type":"tourelle","vitesse":80,"route":"D946","commune":"Remaucourt","sens":"","id":null,"source":"radars-auto.com"},{"lat":49.5339,"lng":4.4245,"type":"double_face","vitesse":130,"route":"A34","commune":"Doux","sens":"","id":null,"source":"radars-auto.com"},{"lat":49.72741,"lng":4.4279,"type":"fixe","vitesse":80,"route":"D985","commune":"Signy-l\\'Abbaye","sens":"","id":null,"source":"radars-auto.com"},{"lat":49.75311,"lng":5.02838,"type":"fixe","vitesse":110,"route":"N58","commune":"La Chapelle","sens":"","id":null,"source":"radars-auto.com"},{"lat":49.4083,"lng":4.36857,"type":"tourelle","vitesse":80,"route":"D985","commune":"Juniville","sens":"","id":null,"source":"radars-auto.com"},{"lat":49.38204,"lng":4.57785,"type":"tourelle","vitesse":80,"route":"D977","commune":"Leffincourt","sens":"","id":null,"source":"radars-auto.com"},{"lat":49.65626,"lng":4.88652,"type":"tourelle","vitesse":80,"route":"D977","commune":"Cheveuges","sens":"","id":null,"source":"radars-auto.com"},{"lat":49.87258,"lng":4.37849,"type":"tourelle","vitesse":50,"route":"D8043","commune":"Auvillers-les-Forges","sens":"","id":null,"source":"radars-auto.com"},{"lat":49.94343,"lng":4.78067,"type":"mobile","vitesse":80,"route":"D989","commune":"Thilay","sens":"","id":null,"source":"radars-auto.com"},{"lat":49.4352,"lng":4.5736,"type":"mobile","vitesse":50,"route":"D987","commune":"Coulommes-et-Marqueny","sens":"","id":null,"source":"radars-auto.com"},{"lat":49.84894,"lng":4.70202,"type":"mobile","vitesse":80,"route":"D989","commune":"Sécheval","sens":"","id":null,"source":"radars-auto.com"},{"lat":49.60294,"lng":5.24246,"type":"mobile","vitesse":80,"route":"D8043","commune":"Fromy","sens":"","id":null,"source":"radars-auto.com"},{"lat":50.11293,"lng":4.76378,"type":"mobile","vitesse":70,"route":"D8051","commune":"Aubrives","sens":"","id":null,"source":"radars-auto.com"},{"lat":43.02247,"lng":1.61541,"type":"troncon","vitesse":110,"route":"N20","commune":"Dalou","sens":"","id":null,"source":"radars-auto.com"},{"lat":42.6499,"lng":1.83422,"type":"tourelle","vitesse":80,"route":"N20","commune":"Mérens-les-Vals","sens":"","id":null,"source":"radars-auto.com"},{"lat":43.0349,"lng":1.89723,"type":"tourelle","vitesse":80,"route":"D625","commune":"Saint-Quentin-la-Tour","sens":"","id":null,"source":"radars-auto.com"},{"lat":43.01157,"lng":1.11558,"type":"tourelle","vitesse":50,"route":"D117","commune":"Lorp-Sentaraille","sens":"","id":null,"source":"radars-auto.com"},{"lat":42.9958,"lng":1.19736,"type":"tourelle","vitesse":80,"route":"D117","commune":"Montjoie-en-Couserans","sens":"","id":null,"source":"radars-auto.com"},{"lat":43.02414,"lng":1.58949,"type":"tourelle","vitesse":80,"route":"D919","commune":"Crampagna","sens":"","id":null,"source":"radars-auto.com"},{"lat":42.85717,"lng":1.60136,"type":"tourelle","vitesse":50,"route":"D618","commune":"Tarascon-sur-Ariège","sens":"","id":null,"source":"radars-auto.com"},{"lat":43.09626,"lng":1.87869,"type":"tourelle","vitesse":70,"route":"D119","commune":"Mirepoix","sens":"","id":null,"source":"radars-auto.com"},{"lat":42.91712,"lng":1.63862,"type":"tourelle","vitesse":80,"route":"N20","commune":"Saint-Paul-de-Jarrat","sens":"","id":null,"source":"radars-auto.com"},{"lat":43.18218,"lng":1.24365,"type":"fixe","vitesse":70,"route":"D628","commune":"Thouars-sur-Arize","sens":"","id":null,"source":"radars-auto.com"},{"lat":42.93524,"lng":1.85017,"type":"feu_rouge","vitesse":50,"route":"D625","commune":"Lavelanet","sens":"","id":null,"source":"radars-auto.com"},{"lat":43.02065,"lng":1.6148,"type":"troncon","vitesse":110,"route":"N20","commune":"Foix","sens":"","id":null,"source":"radars-auto.com"},{"lat":43.19749,"lng":1.6309,"type":"double_face","vitesse":130,"route":"A66","commune":"Montaut","sens":"","id":null,"source":"radars-auto.com"},{"lat":43.19671,"lng":1.60996,"type":"tourelle","vitesse":80,"route":"D820","commune":"Le Vernet","sens":"","id":null,"source":"radars-auto.com"},{"lat":42.78451,"lng":1.6947,"type":"mobile","vitesse":80,"route":"N20","commune":"Verdun","sens":"","id":null,"source":"radars-auto.com"},{"lat":42.92693,"lng":1.70116,"type":"mobile","vitesse":80,"route":"D117","commune":"Celles","sens":"","id":null,"source":"radars-auto.com"},{"lat":48.49131,"lng":3.85783,"type":"tourelle","vitesse":90,"route":"D619","commune":"Châtres","sens":"","id":null,"source":"radars-auto.com"},{"lat":48.24582,"lng":4.02429,"type":"tourelle","vitesse":80,"route":"N77","commune":"Saint-Germain","sens":"","id":null,"source":"radars-auto.com"},{"lat":48.24258,"lng":3.69967,"type":"tourelle","vitesse":90,"route":"D660","commune":"Paisy-Cosdon","sens":"","id":null,"source":"radars-auto.com"},{"lat":48.20364,"lng":4.00406,"type":"tourelle","vitesse":80,"route":"N77","commune":"Souligny","sens":"","id":null,"source":"radars-auto.com"},{"lat":48.15765,"lng":4.24447,"type":"tourelle","vitesse":90,"route":"D671","commune":"Chappes","sens":"","id":null,"source":"radars-auto.com"},{"lat":48.09896,"lng":4.37893,"type":"tourelle","vitesse":90,"route":"D671","commune":"Bar-sur-Seine","sens":"","id":null,"source":"radars-auto.com"},{"lat":48.16992,"lng":4.32499,"type":"double_face","vitesse":130,"route":"A5","commune":"Chauffour-lès-Bailly","sens":"","id":null,"source":"radars-auto.com"},{"lat":48.2674,"lng":4.61052,"type":"tourelle","vitesse":90,"route":"D619","commune":"Dolancourt","sens":"","id":null,"source":"radars-auto.com"},{"lat":48.48268,"lng":3.4941,"type":"tourelle","vitesse":90,"route":"D619","commune":"Nogent-sur-Seine","sens":"","id":null,"source":"radars-auto.com"},{"lat":48.2892,"lng":4.085,"type":"fixe","vitesse":50,"route":"","commune":"Troyes","sens":"","id":null,"source":"radars-auto.com"},{"lat":48.35836,"lng":4.10435,"type":"fixe","vitesse":90,"route":"D677","commune":"Sainte-Maure","sens":"","id":null,"source":"radars-auto.com"},{"lat":48.3968,"lng":4.36833,"type":"double_sens","vitesse":90,"route":"D960","commune":"Val-d\\'Auzon","sens":"","id":null,"source":"radars-auto.com"},{"lat":48.6562,"lng":4.17438,"type":"double_face","vitesse":130,"route":"A26","commune":"Mailly-le-Camp","sens":"","id":null,"source":"radars-auto.com"},{"lat":48.36442,"lng":4.16051,"type":"double_face","vitesse":130,"route":"A26","commune":"Luyères","sens":"","id":null,"source":"radars-auto.com"},{"lat":48.2614,"lng":4.08528,"type":"tourelle","vitesse":90,"route":"D610","commune":"Rosières-près-Troyes","sens":"","id":null,"source":"radars-auto.com"},{"lat":48.4611,"lng":3.89596,"type":"tourelle","vitesse":90,"route":"D619","commune":"Vallant-Saint-Georges","sens":"","id":null,"source":"radars-auto.com"},{"lat":48.4722,"lng":3.46013,"type":"double_sens","vitesse":80,"route":"D951","commune":"La Motte-Tilly","sens":"","id":null,"source":"radars-auto.com"},{"lat":48.3302,"lng":4.11184,"type":"double_face","vitesse":110,"route":"D610","commune":"Creney-près-Troyes","sens":"","id":null,"source":"radars-auto.com"},{"lat":48.1988,"lng":4.76694,"type":"double_sens","vitesse":80,"route":"D396","commune":"Bayel","sens":"","id":null,"source":"radars-auto.com"},{"lat":48.28649,"lng":3.95648,"type":"tourelle","vitesse":90,"route":"D660","commune":"Montgueux","sens":"","id":null,"source":"radars-auto.com"},{"lat":48.23811,"lng":4.44045,"type":"tourelle","vitesse":90,"route":"D619","commune":"Vendeuvre-sur-Barse","sens":"","id":null,"source":"radars-auto.com"},{"lat":48.27303,"lng":3.89518,"type":"double_face","vitesse":130,"route":"A5","commune":"Messon","sens":"","id":null,"source":"radars-auto.com"},{"lat":48.28877,"lng":4.08374,"type":"feu_rouge","vitesse":null,"route":"","commune":"Troyes","sens":"","id":null,"source":"radars-auto.com"},{"lat":48.51654,"lng":3.71491,"type":"feu_rouge","vitesse":null,"route":"D206","commune":"Romilly-sur-Seine","sens":"","id":null,"source":"radars-auto.com"},{"lat":48.26737,"lng":4.08897,"type":"feu_rouge","vitesse":null,"route":"D671","commune":"Saint-Julien-les-Villas","sens":"","id":null,"source":"radars-auto.com"},{"lat":48.51604,"lng":3.71479,"type":"feu_rouge","vitesse":null,"route":"D206","commune":"Romilly-sur-Seine","sens":"","id":null,"source":"radars-auto.com"},{"lat":48.26686,"lng":4.08948,"type":"feu_rouge","vitesse":null,"route":"D671","commune":"Saint-Julien-les-Villas","sens":"","id":null,"source":"radars-auto.com"},{"lat":48.49365,"lng":3.88561,"type":"tourelle","vitesse":80,"route":"D373","commune":"Mesgrigny","sens":"","id":null,"source":"radars-auto.com"},{"lat":48.24006,"lng":4.69841,"type":"tourelle","vitesse":50,"route":"D619","commune":"Bar-sur-Aube","sens":"","id":null,"source":"radars-auto.com"},{"lat":48.3326,"lng":4.09364,"type":"double_face","vitesse":110,"route":"D610","commune":"Lavau","sens":"","id":null,"source":"radars-auto.com"},{"lat":48.3441,"lng":4.20592,"type":"tourelle","vitesse":90,"route":"D960","commune":"Mesnil-Sellières","sens":"","id":null,"source":"radars-auto.com"},{"lat":48.14213,"lng":4.61669,"type":"fixe","vitesse":130,"route":"A5","commune":"Champignol-lez-Mondeville","sens":"","id":null,"source":"radars-auto.com"},{"lat":48.4964,"lng":4.13625,"type":"fixe","vitesse":90,"route":"D677","commune":"Saint-Étienne-sous-Barbuise","sens":"","id":null,"source":"radars-auto.com"},{"lat":48.48601,"lng":3.482,"type":"fixe","vitesse":90,"route":"D619","commune":"Nogent-sur-Seine","sens":"","id":null,"source":"radars-auto.com"},{"lat":48.39779,"lng":3.94495,"type":"mobile","vitesse":90,"route":"D619","commune":"Savières","sens":"","id":null,"source":"radars-auto.com"},{"lat":48.20871,"lng":4.15666,"type":"mobile","vitesse":90,"route":"D671","commune":"Saint-Thibault","sens":"","id":null,"source":"radars-auto.com"},{"lat":48.50484,"lng":4.51146,"type":"mobile","vitesse":80,"route":"D396","commune":"Pars-lès-Chavanges","sens":"","id":null,"source":"radars-auto.com"},{"lat":43.08331,"lng":2.94374,"type":"tourelle","vitesse":80,"route":"D6009","commune":"Peyriac-de-Mer","sens":"","id":null,"source":"radars-auto.com"},{"lat":43.35945,"lng":1.9626,"type":"tourelle","vitesse":50,"route":"D624","commune":"Peyrens","sens":"","id":null,"source":"radars-auto.com"},{"lat":43.1425,"lng":3.05099,"type":"tourelle","vitesse":80,"route":"D32","commune":"Narbonne","sens":"","id":null,"source":"radars-auto.com"},{"lat":43.1273,"lng":3.06027,"type":"tourelle","vitesse":80,"route":"D32","commune":"Narbonne","sens":"","id":null,"source":"radars-auto.com"},{"lat":43.1926,"lng":2.3697,"type":"double_face","vitesse":130,"route":"A61","commune":"Carcassonne","sens":"","id":null,"source":"radars-auto.com"},{"lat":43.1907,"lng":3.06719,"type":"double_face","vitesse":130,"route":"A9","commune":"Armissan","sens":"","id":null,"source":"radars-auto.com"},{"lat":43.1919,"lng":2.4151,"type":"double_face","vitesse":130,"route":"A61","commune":"Carcassonne","sens":"","id":null,"source":"radars-auto.com"},{"lat":42.90615,"lng":3.00006,"type":"tourelle","vitesse":80,"route":"D6009","commune":"Fitou","sens":"","id":null,"source":"radars-auto.com"},{"lat":43.03895,"lng":2.24338,"type":"fixe","vitesse":70,"route":"D118","commune":"Cournanel","sens":"","id":null,"source":"radars-auto.com"},{"lat":43.14197,"lng":2.29771,"type":"tourelle","vitesse":80,"route":"D118","commune":"Preixan","sens":"","id":null,"source":"radars-auto.com"},{"lat":43.33997,"lng":1.87524,"type":"tourelle","vitesse":80,"route":"D6113","commune":"Labastide-d\\'Anjou","sens":"","id":null,"source":"radars-auto.com"},{"lat":43.30621,"lng":2.91855,"type":"tourelle","vitesse":70,"route":"D5","commune":"Argeliers","sens":"","id":null,"source":"radars-auto.com"},{"lat":43.21031,"lng":2.36376,"type":"tourelle","vitesse":50,"route":"D6113","commune":"Carcassonne","sens":"","id":null,"source":"radars-auto.com"},{"lat":43.21644,"lng":2.35238,"type":"feu_rouge","vitesse":null,"route":"","commune":"Carcassonne","sens":"","id":null,"source":"radars-auto.com"},{"lat":43.21278,"lng":2.34505,"type":"feu_rouge","vitesse":null,"route":"","commune":"Carcassonne","sens":"","id":null,"source":"radars-auto.com"},{"lat":43.20357,"lng":2.76121,"type":"feu_rouge","vitesse":50,"route":"D6113","commune":"Lézignan-Corbières","sens":"","id":null,"source":"radars-auto.com"},{"lat":43.20319,"lng":2.76245,"type":"feu_rouge","vitesse":null,"route":"D6113","commune":"Lézignan-Corbières","sens":"","id":null,"source":"radars-auto.com"},{"lat":43.21634,"lng":2.35641,"type":"feu_rouge","vitesse":null,"route":"","commune":"Carcassonne","sens":"","id":null,"source":"radars-auto.com"},{"lat":43.1702,"lng":2.77917,"type":"double_face","vitesse":130,"route":"A61","commune":"Luc-sur-Orbieu","sens":"","id":null,"source":"radars-auto.com"},{"lat":43.26551,"lng":2.71953,"type":"tourelle","vitesse":70,"route":"D610","commune":"Homps","sens":"","id":null,"source":"radars-auto.com"},{"lat":43.17759,"lng":2.97057,"type":"mobile","vitesse":80,"route":"D6009","commune":"Narbonne","sens":"","id":null,"source":"radars-auto.com"},{"lat":42.94354,"lng":2.9891,"type":"mobile","vitesse":80,"route":"D6009","commune":"Roquefort-des-Corbières","sens":"","id":null,"source":"radars-auto.com"},{"lat":44.3904,"lng":2.69526,"type":"fixe","vitesse":90,"route":"D888","commune":"Montrozier","sens":"","id":null,"source":"radars-auto.com"},{"lat":44.4133,"lng":2.09553,"type":"double_sens","vitesse":90,"route":"D1","commune":"Maleville","sens":"","id":null,"source":"radars-auto.com"},{"lat":44.568,"lng":2.65374,"type":"double_sens","vitesse":90,"route":"D920","commune":"Estaing","sens":"","id":null,"source":"radars-auto.com"},{"lat":44.3365,"lng":3.0284,"type":"tourelle","vitesse":90,"route":"D888","commune":"Sévérac d\\'Aveyron","sens":"","id":null,"source":"radars-auto.com"},{"lat":44.39167,"lng":2.38373,"type":"tourelle","vitesse":90,"route":"D994","commune":"Mayran","sens":"","id":null,"source":"radars-auto.com"},{"lat":43.9486,"lng":2.91205,"type":"double_sens","vitesse":90,"route":"D999","commune":"Saint-Affrique","sens":"","id":null,"source":"radars-auto.com"},{"lat":44.0801,"lng":3.00095,"type":"tourelle","vitesse":90,"route":"D992","commune":"Saint-Georges-de-Luzençon","sens":"","id":null,"source":"radars-auto.com"},{"lat":44.52474,"lng":2.3331,"type":"double_sens","vitesse":70,"route":"D840","commune":"Firmi","sens":"","id":null,"source":"radars-auto.com"},{"lat":44.28738,"lng":2.42166,"type":"tourelle","vitesse":90,"route":"D911","commune":"Baraqueville","sens":"","id":null,"source":"radars-auto.com"},{"lat":44.12682,"lng":3.05582,"type":"mobile","vitesse":90,"route":"D911","commune":"Millau","sens":"","id":null,"source":"radars-auto.com"},{"lat":44.57381,"lng":2.17115,"type":"mobile","vitesse":90,"route":"D840","commune":"Bouillac","sens":"","id":null,"source":"radars-auto.com"},{"lat":44.39064,"lng":2.51157,"type":"mobile","vitesse":90,"route":"D840","commune":"Onet-le-Château","sens":"","id":null,"source":"radars-auto.com"},{"lat":48.67774,"lng":7.7756,"type":"double_face","vitesse":130,"route":"A35","commune":"Hoerdt","sens":"","id":null,"source":"radars-auto.com"},{"lat":48.5707,"lng":7.73915,"type":"fixe","vitesse":70,"route":"N4","commune":"Strasbourg","sens":"","id":null,"source":"radars-auto.com"},{"lat":48.49267,"lng":7.55745,"type":"fixe","vitesse":130,"route":"A35","commune":"Innenheim","sens":"","id":null,"source":"radars-auto.com"},{"lat":48.6384,"lng":7.72805,"type":"fixe","vitesse":90,"route":"M35","commune":"Souffelweyersheim","sens":"","id":null,"source":"radars-auto.com"},{"lat":48.96526,"lng":7.61613,"type":"double_sens","vitesse":80,"route":"D1062","commune":"Niederbronn-les-Bains","sens":"","id":null,"source":"radars-auto.com"},{"lat":48.86311,"lng":7.70077,"type":"tourelle","vitesse":80,"route":"D1062","commune":"Haguenau","sens":"","id":null,"source":"radars-auto.com"},{"lat":48.24142,"lng":7.47349,"type":"double_sens","vitesse":80,"route":"D424","commune":"Sélestat","sens":"","id":null,"source":"radars-auto.com"},{"lat":48.45282,"lng":7.7167,"type":"tourelle","vitesse":70,"route":"D468","commune":"Plobsheim","sens":"","id":null,"source":"radars-auto.com"},{"lat":48.52465,"lng":7.65876,"type":"double_face","vitesse":90,"route":"M35","commune":"Geispolsheim","sens":"","id":null,"source":"radars-auto.com"},{"lat":48.861,"lng":7.46302,"type":"tourelle","vitesse":80,"route":"D6","commune":"Ingwiller","sens":"","id":null,"source":"radars-auto.com"},{"lat":48.39999,"lng":7.62323,"type":"double_face","vitesse":110,"route":"D1083","commune":"Osthouse","sens":"","id":null,"source":"radars-auto.com"},{"lat":48.571,"lng":7.78696,"type":"tourelle","vitesse":50,"route":"M352","commune":"Strasbourg","sens":"","id":null,"source":"radars-auto.com"},{"lat":48.83616,"lng":7.91861,"type":"tourelle","vitesse":80,"route":"D1063","commune":"Haguenau","sens":"","id":null,"source":"radars-auto.com"},{"lat":48.63805,"lng":7.72792,"type":"fixe","vitesse":90,"route":"M35","commune":"Souffelweyersheim","sens":"","id":null,"source":"radars-auto.com"},{"lat":48.64004,"lng":7.80791,"type":"tourelle","vitesse":70,"route":"D223","commune":"Strasbourg","sens":"","id":null,"source":"radars-auto.com"},{"lat":48.57539,"lng":7.75629,"type":"feu_rouge","vitesse":null,"route":"","commune":"Strasbourg","sens":"","id":null,"source":"radars-auto.com"},{"lat":48.56501,"lng":7.70655,"type":"feu_rouge","vitesse":50,"route":"D392","commune":"Strasbourg","sens":"","id":null,"source":"radars-auto.com"},{"lat":48.58579,"lng":7.78491,"type":"fixe","vitesse":50,"route":"","commune":"Strasbourg","sens":"","id":null,"source":"radars-auto.com"},{"lat":48.26876,"lng":7.45745,"type":"feu_rouge","vitesse":50,"route":"D1083","commune":"Sélestat","sens":"","id":null,"source":"radars-auto.com"},{"lat":48.25864,"lng":7.45034,"type":"feu_rouge","vitesse":null,"route":"","commune":"Sélestat","sens":"","id":null,"source":"radars-auto.com"},{"lat":48.26802,"lng":7.4568,"type":"feu_rouge","vitesse":null,"route":"D1083","commune":"Sélestat","sens":"","id":null,"source":"radars-auto.com"},{"lat":48.81326,"lng":7.78423,"type":"feu_rouge","vitesse":null,"route":"","commune":"Haguenau","sens":"","id":null,"source":"radars-auto.com"},{"lat":48.81082,"lng":7.78317,"type":"feu_rouge","vitesse":null,"route":"","commune":"Haguenau","sens":"","id":null,"source":"radars-auto.com"},{"lat":48.56452,"lng":7.70598,"type":"feu_rouge","vitesse":null,"route":"D392","commune":"Strasbourg","sens":"","id":null,"source":"radars-auto.com"},{"lat":48.59136,"lng":7.73176,"type":"feu_rouge","vitesse":null,"route":"","commune":"Strasbourg","sens":"","id":null,"source":"radars-auto.com"},{"lat":48.59146,"lng":7.7311,"type":"feu_rouge","vitesse":50,"route":"","commune":"Strasbourg","sens":"","id":null,"source":"radars-auto.com"},{"lat":48.388,"lng":7.53989,"type":"double_sens","vitesse":80,"route":"D5","commune":"Kertzfeld","sens":"","id":null,"source":"radars-auto.com"},{"lat":48.92234,"lng":7.10823,"type":"tourelle","vitesse":80,"route":"D1061","commune":"Rimsdorf","sens":"","id":null,"source":"radars-auto.com"},{"lat":48.33897,"lng":7.54113,"type":"double_face","vitesse":70,"route":"D83","commune":"Kogenheim","sens":"","id":null,"source":"radars-auto.com"},{"lat":48.7867,"lng":7.55887,"type":"fixe","vitesse":80,"route":"D7","commune":"Bossendorf","sens":"","id":null,"source":"radars-auto.com"},{"lat":48.58933,"lng":7.73058,"type":"fixe","vitesse":70,"route":"M35","commune":"Strasbourg","sens":"","id":null,"source":"radars-auto.com"},{"lat":48.74764,"lng":7.56854,"type":"troncon","vitesse":80,"route":"D25","commune":"Hochfelden","sens":"","id":null,"source":"radars-auto.com"},{"lat":48.90315,"lng":7.43905,"type":"double_sens","vitesse":80,"route":"D919","commune":"Wimmenau","sens":"","id":null,"source":"radars-auto.com"},{"lat":48.84643,"lng":7.2072,"type":"tourelle","vitesse":80,"route":"D1061","commune":"Siewiller","sens":"","id":null,"source":"radars-auto.com"},{"lat":48.5746,"lng":7.73723,"type":"urbain","vitesse":50,"route":"","commune":"Strasbourg","sens":"","id":null,"source":"radars-auto.com"},{"lat":48.42701,"lng":7.65886,"type":"tourelle","vitesse":40,"route":"D288","commune":"Erstein","sens":"","id":null,"source":"radars-auto.com"},{"lat":48.54213,"lng":7.72286,"type":"double_sens","vitesse":null,"route":"M35","commune":"Ostwald","sens":"","id":null,"source":"radars-auto.com"},{"lat":48.60921,"lng":7.72699,"type":"double_sens","vitesse":null,"route":"M35","commune":"Schiltigheim","sens":"","id":null,"source":"radars-auto.com"},{"lat":48.6088,"lng":7.727,"type":"double_face","vitesse":70,"route":"M35","commune":"Schiltigheim","sens":"","id":null,"source":"radars-auto.com"},{"lat":48.55328,"lng":7.73246,"type":"double_face","vitesse":70,"route":"M35","commune":"Strasbourg","sens":"","id":null,"source":"radars-auto.com"},{"lat":48.27372,"lng":7.6465,"type":"mobile","vitesse":80,"route":"D468","commune":"Diebolsheim","sens":"","id":null,"source":"radars-auto.com"},{"lat":48.29762,"lng":7.67831,"type":"mobile","vitesse":80,"route":"D52","commune":"Rhinau","sens":"","id":null,"source":"radars-auto.com"},{"lat":43.38,"lng":5.35354,"type":"fixe","vitesse":90,"route":"A7","commune":"Marseille","sens":"","id":null,"source":"radars-auto.com"},{"lat":43.28699,"lng":5.4248,"type":"tourelle","vitesse":70,"route":"A507","commune":"Marseille","sens":"","id":null,"source":"radars-auto.com"},{"lat":43.41398,"lng":5.05715,"type":"urbain","vitesse":50,"route":"","commune":"Martigues","sens":"","id":null,"source":"radars-auto.com"},{"lat":43.34435,"lng":5.34666,"type":"fixe","vitesse":90,"route":"A55","commune":"Marseille","sens":"","id":null,"source":"radars-auto.com"},{"lat":43.32824,"lng":5.37819,"type":"fixe","vitesse":70,"route":"A7","commune":"Marseille","sens":"","id":null,"source":"radars-auto.com"},{"lat":43.8466,"lng":4.9309,"type":"tourelle","vitesse":80,"route":"D7N","commune":"Verquières","sens":"","id":null,"source":"radars-auto.com"},{"lat":43.2843,"lng":5.40482,"type":"fixe","vitesse":70,"route":"A50","commune":"Marseille","sens":"","id":null,"source":"radars-auto.com"},{"lat":43.66431,"lng":4.63345,"type":"double_face","vitesse":90,"route":"N113","commune":"Arles","sens":"","id":null,"source":"radars-auto.com"},{"lat":43.4051,"lng":5.283,"type":"tourelle","vitesse":80,"route":"D368","commune":"Les Pennes-Mirabeau","sens":"","id":null,"source":"radars-auto.com"},{"lat":43.5972,"lng":4.7609,"type":"double_face","vitesse":110,"route":"N568","commune":"Saint-Martin-de-Crau","sens":"","id":null,"source":"radars-auto.com"},{"lat":43.5535,"lng":5.42222,"type":"tourelle","vitesse":70,"route":"D7n","commune":"Aix-en-Provence","sens":"","id":null,"source":"radars-auto.com"},{"lat":43.78525,"lng":4.92584,"type":"tourelle","vitesse":80,"route":"D99","commune":"Saint-Rémy-de-Provence","sens":"","id":null,"source":"radars-auto.com"},{"lat":43.6547,"lng":5.49331,"type":"tourelle","vitesse":80,"route":"D556","commune":"Meyrargues","sens":"","id":null,"source":"radars-auto.com"},{"lat":43.29129,"lng":5.48509,"type":"troncon","vitesse":90,"route":"A50","commune":"Marseille","sens":"","id":null,"source":"radars-auto.com"},{"lat":43.53644,"lng":5.1919,"type":"tourelle","vitesse":80,"route":"D113","commune":"La Fare-les-Oliviers","sens":"","id":null,"source":"radars-auto.com"},{"lat":43.41038,"lng":5.28456,"type":"double_face","vitesse":90,"route":"A7","commune":"Les Pennes-Mirabeau","sens":"","id":null,"source":"radars-auto.com"},{"lat":43.4266,"lng":4.9707,"type":"tourelle","vitesse":90,"route":"N568","commune":"Fos-sur-Mer","sens":"","id":null,"source":"radars-auto.com"},{"lat":43.512,"lng":5.45668,"type":"double_face","vitesse":90,"route":"A8","commune":"Aix-en-Provence","sens":"","id":null,"source":"radars-auto.com"},{"lat":43.41179,"lng":5.02704,"type":"double_face","vitesse":90,"route":"A55","commune":"Martigues","sens":"","id":null,"source":"radars-auto.com"},{"lat":43.64326,"lng":5.54539,"type":"tourelle","vitesse":70,"route":"D96","commune":"Peyrolles-en-Provence","sens":"","id":null,"source":"radars-auto.com"},{"lat":43.67549,"lng":5.09267,"type":"tourelle","vitesse":80,"route":"D538","commune":"Salon-de-Provence","sens":"","id":null,"source":"radars-auto.com"},{"lat":43.72194,"lng":4.65,"type":"tourelle","vitesse":80,"route":"D570N","commune":"Arles","sens":"","id":null,"source":"radars-auto.com"},{"lat":43.28486,"lng":5.4385,"type":"tourelle","vitesse":50,"route":"D8N","commune":"Marseille","sens":"","id":null,"source":"radars-auto.com"},{"lat":43.48918,"lng":5.632,"type":"tourelle","vitesse":80,"route":"D7n","commune":"Rousset","sens":"","id":null,"source":"radars-auto.com"},{"lat":43.5115,"lng":5.42096,"type":"double_face","vitesse":90,"route":"A51","commune":"Aix-en-Provence","sens":"","id":null,"source":"radars-auto.com"},{"lat":43.5075,"lng":4.8601,"type":"double_face","vitesse":110,"route":"N568","commune":"Saint-Martin-de-Crau","sens":"","id":null,"source":"radars-auto.com"},{"lat":43.50617,"lng":5.50799,"type":"double_face","vitesse":90,"route":"A8","commune":"Meyreuil","sens":"","id":null,"source":"radars-auto.com"},{"lat":43.34708,"lng":5.37892,"type":"urbain","vitesse":50,"route":"","commune":"Marseille","sens":"","id":null,"source":"radars-auto.com"},{"lat":43.28837,"lng":5.39278,"type":"voiture","vitesse":50,"route":"","commune":"Marseille","sens":"","id":null,"source":"radars-auto.com"},{"lat":43.2608,"lng":5.3872,"type":"voiture","vitesse":50,"route":"","commune":"Marseille","sens":"","id":null,"source":"radars-auto.com"},{"lat":43.27616,"lng":5.41784,"type":"voiture","vitesse":null,"route":"","commune":"Marseille","sens":"","id":null,"source":"radars-auto.com"},{"lat":43.38824,"lng":4.80313,"type":"urbain","vitesse":50,"route":"","commune":"Port-Saint-Louis-du-Rhône","sens":"","id":null,"source":"radars-auto.com"},{"lat":43.54488,"lng":5.04135,"type":"urbain","vitesse":50,"route":"D10","commune":"Saint-Chamas","sens":"","id":null,"source":"radars-auto.com"},{"lat":43.36743,"lng":5.24784,"type":"urbain","vitesse":50,"route":"D568","commune":"Le Rove","sens":"","id":null,"source":"radars-auto.com"},{"lat":43.64576,"lng":5.57706,"type":"urbain","vitesse":50,"route":"D96","commune":"Peyrolles-en-Provence","sens":"","id":null,"source":"radars-auto.com"},{"lat":43.36748,"lng":5.2481,"type":"urbain","vitesse":50,"route":"D568","commune":"Le Rove","sens":"","id":null,"source":"radars-auto.com"},{"lat":43.59201,"lng":5.00397,"type":"urbain","vitesse":50,"route":"N569","commune":"Miramas","sens":"","id":null,"source":"radars-auto.com"},{"lat":43.59127,"lng":5.00405,"type":"urbain","vitesse":50,"route":"N569","commune":"Miramas","sens":"","id":null,"source":"radars-auto.com"},{"lat":43.67526,"lng":4.63205,"type":"feu_rouge","vitesse":null,"route":"","commune":"Arles","sens":"","id":null,"source":"radars-auto.com"},{"lat":43.33363,"lng":5.39877,"type":"urbain","vitesse":50,"route":"","commune":"Marseille","sens":"","id":null,"source":"radars-auto.com"},{"lat":43.3334,"lng":5.39903,"type":"feu_rouge","vitesse":50,"route":"","commune":"Marseille","sens":"","id":null,"source":"radars-auto.com"},{"lat":43.28387,"lng":5.38408,"type":"feu_rouge","vitesse":null,"route":"","commune":"Marseille","sens":"","id":null,"source":"radars-auto.com"},{"lat":43.28725,"lng":5.62296,"type":"urbain","vitesse":50,"route":"D42e","commune":"Gémenos","sens":"","id":null,"source":"radars-auto.com"},{"lat":43.30321,"lng":5.36489,"type":"fixe","vitesse":50,"route":"A55","commune":"Marseille","sens":"","id":null,"source":"radars-auto.com"},{"lat":43.86887,"lng":4.83627,"type":"urbain","vitesse":50,"route":"D34","commune":"Châteaurenard","sens":"","id":null,"source":"radars-auto.com"},{"lat":43.39535,"lng":5.34347,"type":"voiture","vitesse":null,"route":"D113","commune":"Les Pennes-Mirabeau","sens":"","id":null,"source":"radars-auto.com"},{"lat":43.64604,"lng":5.57817,"type":"urbain","vitesse":50,"route":"D96","commune":"Peyrolles-en-Provence","sens":"","id":null,"source":"radars-auto.com"},{"lat":43.34537,"lng":5.60341,"type":"urbain","vitesse":50,"route":"D96","commune":"Roquevaire","sens":"","id":null,"source":"radars-auto.com"},{"lat":43.34432,"lng":5.60376,"type":"feu_rouge","vitesse":50,"route":"D96","commune":"Roquevaire","sens":"","id":null,"source":"radars-auto.com"},{"lat":43.39504,"lng":5.34363,"type":"voiture","vitesse":50,"route":"D113","commune":"Les Pennes-Mirabeau","sens":"","id":null,"source":"radars-auto.com"},{"lat":43.27586,"lng":5.69982,"type":"voiture","vitesse":30,"route":"D8N","commune":"Cuges-les-Pins","sens":"","id":null,"source":"radars-auto.com"},{"lat":43.88799,"lng":4.85436,"type":"urbain","vitesse":50,"route":"D28","commune":"Châteaurenard","sens":"","id":null,"source":"radars-auto.com"},{"lat":43.88796,"lng":4.85378,"type":"urbain","vitesse":50,"route":"D28","commune":"Châteaurenard","sens":"","id":null,"source":"radars-auto.com"},{"lat":43.80776,"lng":4.99489,"type":"feu_rouge","vitesse":50,"route":"D7N","commune":"Plan-d\\'Orgon","sens":"","id":null,"source":"radars-auto.com"},{"lat":43.41082,"lng":4.98321,"type":"urbain","vitesse":50,"route":"","commune":"Port-de-Bouc","sens":"","id":null,"source":"radars-auto.com"},{"lat":43.4115,"lng":4.98376,"type":"urbain","vitesse":50,"route":"","commune":"Port-de-Bouc","sens":"","id":null,"source":"radars-auto.com"},{"lat":43.80731,"lng":4.99508,"type":"urbain","vitesse":50,"route":"D99","commune":"Plan-d\\'Orgon","sens":"","id":null,"source":"radars-auto.com"},{"lat":43.28788,"lng":5.62332,"type":"urbain","vitesse":50,"route":"D42e","commune":"Gémenos","sens":"","id":null,"source":"radars-auto.com"},{"lat":43.6564,"lng":4.65187,"type":"double_face","vitesse":110,"route":"N113","commune":"Arles","sens":"","id":null,"source":"radars-auto.com"},{"lat":43.1906,"lng":5.64149,"type":"urbain","vitesse":50,"route":"D559","commune":"La Ciotat","sens":"","id":null,"source":"radars-auto.com"},{"lat":43.4043,"lng":5.34184,"type":"double_face","vitesse":90,"route":"A7","commune":"Les Pennes-Mirabeau","sens":"","id":null,"source":"radars-auto.com"},{"lat":43.42297,"lng":5.37298,"type":"double_face","vitesse":90,"route":"A51","commune":"Cabriès","sens":"","id":null,"source":"radars-auto.com"},{"lat":43.54912,"lng":4.40183,"type":"tourelle","vitesse":80,"route":"D570","commune":"Saintes-Maries-de-la-Mer","sens":"","id":null,"source":"radars-auto.com"},{"lat":43.53099,"lng":4.95995,"type":"tourelle","vitesse":80,"route":"N569","commune":"Istres","sens":"","id":null,"source":"radars-auto.com"},{"lat":43.54316,"lng":4.9559,"type":"tourelle","vitesse":80,"route":"N569","commune":"Istres","sens":"","id":null,"source":"radars-auto.com"},{"lat":43.47075,"lng":4.94784,"type":"tourelle","vitesse":80,"route":"N569","commune":"Fos-sur-Mer","sens":"","id":null,"source":"radars-auto.com"},{"lat":43.4953,"lng":4.9657,"type":"tourelle","vitesse":80,"route":"N569","commune":"Istres","sens":"","id":null,"source":"radars-auto.com"},{"lat":43.5674,"lng":5.15474,"type":"troncon","vitesse":90,"route":"D113","commune":"Lançon-Provence","sens":"","id":null,"source":"radars-auto.com"},{"lat":43.2884,"lng":5.49959,"type":"troncon","vitesse":90,"route":"A50","commune":"Marseille","sens":"","id":null,"source":"radars-auto.com"},{"lat":43.64842,"lng":5.54471,"type":"passage_niveau","vitesse":70,"route":"D15","commune":"Meyrargues","sens":"","id":null,"source":"radars-auto.com"},{"lat":43.6483,"lng":5.54596,"type":"passage_niveau","vitesse":70,"route":"D15","commune":"Meyrargues","sens":"","id":null,"source":"radars-auto.com"},{"lat":43.4113,"lng":5.30558,"type":"feu_rouge","vitesse":null,"route":"D113","commune":"Les Pennes-Mirabeau","sens":"","id":null,"source":"radars-auto.com"},{"lat":43.66765,"lng":4.62808,"type":"double_face","vitesse":90,"route":"N113","commune":"Arles","sens":"","id":null,"source":"radars-auto.com"},{"lat":43.31398,"lng":5.40529,"type":"urbain","vitesse":50,"route":"","commune":"Marseille","sens":"","id":null,"source":"radars-auto.com"},{"lat":43.45166,"lng":5.30156,"type":"double_face","vitesse":90,"route":"D9","commune":"Aix-en-Provence","sens":"","id":null,"source":"radars-auto.com"},{"lat":43.41353,"lng":5.21346,"type":"urbain","vitesse":50,"route":"","commune":"Marignane","sens":"","id":null,"source":"radars-auto.com"},{"lat":43.39455,"lng":5.22588,"type":"tourelle","vitesse":50,"route":"D368","commune":"Gignac-la-Nerthe","sens":"","id":null,"source":"radars-auto.com"},{"lat":43.3334,"lng":5.38469,"type":"tourelle","vitesse":70,"route":"A507","commune":"Marseille","sens":"","id":null,"source":"radars-auto.com"},{"lat":43.32076,"lng":5.42244,"type":"tourelle","vitesse":70,"route":"A507","commune":"Marseille","sens":"","id":null,"source":"radars-auto.com"},{"lat":43.30192,"lng":5.42541,"type":"tourelle","vitesse":70,"route":"A507","commune":"Marseille","sens":"","id":null,"source":"radars-auto.com"},{"lat":43.34849,"lng":5.36193,"type":"urbain","vitesse":50,"route":"","commune":"Marseille","sens":"","id":null,"source":"radars-auto.com"},{"lat":43.58227,"lng":4.44427,"type":"tourelle","vitesse":80,"route":"D570","commune":"Saintes-Maries-de-la-Mer","sens":"","id":null,"source":"radars-auto.com"},{"lat":43.2838,"lng":5.58827,"type":"double_sens","vitesse":null,"route":"A502","commune":"Aubagne","sens":"","id":null,"source":"radars-auto.com"},{"lat":43.36073,"lng":5.2718,"type":"tourelle","vitesse":80,"route":"D568","commune":"Le Rove","sens":"","id":null,"source":"radars-auto.com"},{"lat":43.28409,"lng":5.49085,"type":"tourelle","vitesse":50,"route":"","commune":"Marseille","sens":"","id":null,"source":"radars-auto.com"},{"lat":43.24742,"lng":5.39285,"type":"tourelle","vitesse":50,"route":"","commune":"Marseille","sens":"","id":null,"source":"radars-auto.com"},{"lat":43.25204,"lng":5.37576,"type":"tourelle","vitesse":50,"route":"","commune":"Marseille","sens":"","id":null,"source":"radars-auto.com"},{"lat":43.2562,"lng":5.37658,"type":"urbain","vitesse":null,"route":"","commune":"Marseille","sens":"","id":null,"source":"radars-auto.com"},{"lat":43.35786,"lng":5.35759,"type":"voiture","vitesse":50,"route":"","commune":"Marseille","sens":"","id":null,"source":"radars-auto.com"},{"lat":43.24876,"lng":5.44098,"type":"voiture","vitesse":50,"route":"D559","commune":"Marseille","sens":"","id":null,"source":"radars-auto.com"},{"lat":43.3449,"lng":5.37432,"type":"mobile","vitesse":70,"route":"A7","commune":"Marseille","sens":"","id":null,"source":"radars-auto.com"},{"lat":43.24,"lng":5.45684,"type":"mobile","vitesse":70,"route":"D559","commune":"Marseille","sens":"","id":null,"source":"radars-auto.com"},{"lat":43.26575,"lng":5.67029,"type":"mobile","vitesse":80,"route":"D8N","commune":"Cuges-les-Pins","sens":"","id":null,"source":"radars-auto.com"},{"lat":43.36891,"lng":5.18451,"type":"mobile","vitesse":70,"route":"D9","commune":"Ensuès-la-Redonne","sens":"","id":null,"source":"radars-auto.com"},{"lat":43.5288,"lng":5.09622,"type":"mobile","vitesse":80,"route":"D10","commune":"Saint-Chamas","sens":"","id":null,"source":"radars-auto.com"},{"lat":43.67174,"lng":5.4304,"type":"mobile","vitesse":80,"route":"D561","commune":"Le Puy-Sainte-Réparade","sens":"","id":null,"source":"radars-auto.com"},{"lat":43.38117,"lng":5.35252,"type":"mobile","vitesse":70,"route":"A7","commune":"Marseille","sens":"","id":null,"source":"radars-auto.com"},{"lat":43.30606,"lng":5.50129,"type":"mobile","vitesse":50,"route":"","commune":"Marseille","sens":"","id":null,"source":"radars-auto.com"},{"lat":43.36027,"lng":5.36202,"type":"mobile","vitesse":70,"route":"A7","commune":"Marseille","sens":"","id":null,"source":"radars-auto.com"},{"lat":49.1749,"lng":-0.31145,"type":"fixe","vitesse":90,"route":"N814","commune":"Mondeville","sens":"","id":null,"source":"radars-auto.com"},{"lat":49.18947,"lng":-0.33263,"type":"fixe","vitesse":70,"route":"N814","commune":"Hérouville-Saint-Clair","sens":"","id":null,"source":"radars-auto.com"},{"lat":48.9581,"lng":-0.22635,"type":"double_face","vitesse":110,"route":"N158","commune":"Bons-Tassilly","sens":"","id":null,"source":"radars-auto.com"},{"lat":49.19714,"lng":-0.32936,"type":"double_face","vitesse":90,"route":"D515","commune":"Hérouville-Saint-Clair","sens":"","id":null,"source":"radars-auto.com"},{"lat":49.26304,"lng":-0.38049,"type":"double_face","vitesse":110,"route":"D7","commune":"Mathieu","sens":"","id":null,"source":"radars-auto.com"},{"lat":49.3147,"lng":-1.09526,"type":"double_face","vitesse":110,"route":"N13","commune":"Isigny-sur-Mer","sens":"","id":null,"source":"radars-auto.com"},{"lat":49.23977,"lng":-0.1885,"type":"tourelle","vitesse":70,"route":"D513","commune":"Bavent","sens":"","id":null,"source":"radars-auto.com"},{"lat":49.1769,"lng":-0.515,"type":"tourelle","vitesse":70,"route":"D9","commune":"Thue et Mue","sens":"","id":null,"source":"radars-auto.com"},{"lat":48.8864,"lng":-0.23839,"type":"tourelle","vitesse":70,"route":"D511","commune":"Noron-l\\'Abbaye","sens":"","id":null,"source":"radars-auto.com"},{"lat":49.31952,"lng":0.13227,"type":"double_sens","vitesse":50,"route":"D677","commune":"Canapville","sens":"","id":null,"source":"radars-auto.com"},{"lat":48.91198,"lng":-0.48923,"type":"tourelle","vitesse":70,"route":"D562","commune":"Clécy","sens":"","id":null,"source":"radars-auto.com"},{"lat":48.84037,"lng":-0.98773,"type":"tourelle","vitesse":70,"route":"D524","commune":"Noues de Sienne","sens":"","id":null,"source":"radars-auto.com"},{"lat":49.0357,"lng":-0.64538,"type":"fixe","vitesse":80,"route":"D6","commune":"Longvillers","sens":"","id":null,"source":"radars-auto.com"},{"lat":49.1436,"lng":0.36215,"type":"fixe","vitesse":90,"route":"D613","commune":"Marolles","sens":"","id":null,"source":"radars-auto.com"},{"lat":49.18153,"lng":0.22702,"type":"tourelle","vitesse":90,"route":"D579","commune":"Ouilly-le-Vicomte","sens":"","id":null,"source":"radars-auto.com"},{"lat":49.0205,"lng":-0.73643,"type":"tourelle","vitesse":90,"route":"D577","commune":"Dialan sur Chaîne","sens":"","id":null,"source":"radars-auto.com"},{"lat":49.00302,"lng":-0.04887,"type":"tourelle","vitesse":90,"route":"D511","commune":"Saint-Pierre-en-Auge","sens":"","id":null,"source":"radars-auto.com"},{"lat":49.19116,"lng":-0.4299,"type":"double_face","vitesse":90,"route":"N13","commune":"Carpiquet","sens":"","id":null,"source":"radars-auto.com"},{"lat":48.84201,"lng":-0.7706,"type":"tourelle","vitesse":90,"route":"D512","commune":"Valdallière","sens":"","id":null,"source":"radars-auto.com"},{"lat":49.09593,"lng":0.3031,"type":"tourelle","vitesse":70,"route":"D519","commune":"Saint-Denis-de-Mailloc","sens":"","id":null,"source":"radars-auto.com"},{"lat":49.25608,"lng":-0.13307,"type":"tourelle","vitesse":80,"route":"D27","commune":"Varaville","sens":"","id":null,"source":"radars-auto.com"},{"lat":49.1422,"lng":0.41131,"type":"fixe","vitesse":50,"route":"D613","commune":"L\\'Hôtellerie","sens":"","id":null,"source":"radars-auto.com"},{"lat":48.81139,"lng":-0.82042,"type":"tourelle","vitesse":90,"route":"D524","commune":"Vire Normandie","sens":"","id":null,"source":"radars-auto.com"},{"lat":49.07237,"lng":-0.13333,"type":"mobile","vitesse":80,"route":"D40","commune":"Mézidon Vallée d\\'Auge","sens":"","id":null,"source":"radars-auto.com"},{"lat":49.29868,"lng":-0.43104,"type":"mobile","vitesse":90,"route":"D404","commune":"Bény-sur-Mer","sens":"","id":null,"source":"radars-auto.com"},{"lat":48.98194,"lng":-0.47599,"type":"mobile","vitesse":50,"route":"D562","commune":"Thury-Harcourt-le-Hom","sens":"","id":null,"source":"radars-auto.com"},{"lat":48.97163,"lng":-0.76656,"type":"mobile","vitesse":50,"route":"D577","commune":"Souleuvre en Bocage","sens":"","id":null,"source":"radars-auto.com"},{"lat":45.00616,"lng":2.65412,"type":"double_sens","vitesse":80,"route":"N122","commune":"Thiézac","sens":"","id":null,"source":"radars-auto.com"},{"lat":45.11059,"lng":3.13598,"type":"double_face","vitesse":110,"route":"A75","commune":"Vieillespesse","sens":"","id":null,"source":"radars-auto.com"},{"lat":45.11075,"lng":3.13636,"type":"double_face","vitesse":110,"route":"A75","commune":"Vieillespesse","sens":"","id":null,"source":"radars-auto.com"},{"lat":45.1324,"lng":2.97287,"type":"tourelle","vitesse":80,"route":"N122","commune":"Neussargues-Moissac","sens":"","id":null,"source":"radars-auto.com"},{"lat":45.44081,"lng":2.53114,"type":"tourelle","vitesse":70,"route":"D922","commune":"Lanobre","sens":"","id":null,"source":"radars-auto.com"},{"lat":44.9447,"lng":2.46083,"type":"fixe","vitesse":50,"route":"D17","commune":"Aurillac","sens":"","id":null,"source":"radars-auto.com"},{"lat":44.91233,"lng":2.43832,"type":"voiture","vitesse":50,"route":"N122","commune":"Aurillac","sens":"","id":null,"source":"radars-auto.com"},{"lat":44.9217,"lng":2.43986,"type":"voiture","vitesse":50,"route":"","commune":"Aurillac","sens":"","id":null,"source":"radars-auto.com"},{"lat":44.95436,"lng":2.58571,"type":"double_sens","vitesse":80,"route":"N122","commune":"Polminhac","sens":"","id":null,"source":"radars-auto.com"},{"lat":44.84237,"lng":2.47829,"type":"double_sens","vitesse":90,"route":"D920","commune":"Arpajon-sur-Cère","sens":"","id":null,"source":"radars-auto.com"},{"lat":45.29667,"lng":2.39197,"type":"tourelle","vitesse":90,"route":"D922","commune":"Méallet","sens":"","id":null,"source":"radars-auto.com"},{"lat":44.8813,"lng":2.30903,"type":"double_sens","vitesse":80,"route":"N122","commune":"Saint-Mamet-la-Salvetat","sens":"","id":null,"source":"radars-auto.com"},{"lat":44.72842,"lng":2.20103,"type":"double_sens","vitesse":80,"route":"N122","commune":"Saint-Étienne-de-Maurs","sens":"","id":null,"source":"radars-auto.com"},{"lat":45.26877,"lng":3.20234,"type":"double_face","vitesse":110,"route":"A75","commune":"Massiac","sens":"","id":null,"source":"radars-auto.com"},{"lat":45.17559,"lng":3.17045,"type":"double_face","vitesse":130,"route":"A75","commune":"Saint-Poncy","sens":"","id":null,"source":"radars-auto.com"},{"lat":45.61715,"lng":0.10062,"type":"double_face","vitesse":90,"route":"N10","commune":"La Couronne","sens":"","id":null,"source":"radars-auto.com"},{"lat":45.67036,"lng":0.0328,"type":"tourelle","vitesse":90,"route":"N141","commune":"Saint-Saturnin","sens":"","id":null,"source":"radars-auto.com"},{"lat":45.80184,"lng":-0.13484,"type":"tourelle","vitesse":50,"route":"D939","commune":"Rouillac","sens":"","id":null,"source":"radars-auto.com"},{"lat":45.9342,"lng":0.53383,"type":"double_sens","vitesse":90,"route":"D951","commune":"Saint-Laurent-de-Céris","sens":"","id":null,"source":"radars-auto.com"},{"lat":45.5939,"lng":0.27011,"type":"double_sens","vitesse":90,"route":"D939","commune":"Dirac","sens":"","id":null,"source":"radars-auto.com"},{"lat":45.67003,"lng":-0.25411,"type":"double_face","vitesse":110,"route":"N141","commune":"Gensac-la-Pallue","sens":"","id":null,"source":"radars-auto.com"},{"lat":45.8537,"lng":0.1847,"type":"double_face","vitesse":110,"route":"N10","commune":"Maine-de-Boixe","sens":"","id":null,"source":"radars-auto.com"},{"lat":45.28094,"lng":0.04334,"type":"fixe","vitesse":90,"route":"D674","commune":"Chalais","sens":"","id":null,"source":"radars-auto.com"},{"lat":45.59437,"lng":-0.31732,"type":"tourelle","vitesse":90,"route":"D731","commune":"Angeac-Champagne","sens":"","id":null,"source":"radars-auto.com"},{"lat":45.63049,"lng":0.13414,"type":"tourelle","vitesse":70,"route":"D1000","commune":"Angoulême","sens":"","id":null,"source":"radars-auto.com"},{"lat":45.6691,"lng":0.11812,"type":"voiture","vitesse":50,"route":"D941","commune":"Saint-Yrieix-sur-Charente","sens":"","id":null,"source":"radars-auto.com"},{"lat":45.88586,"lng":0.58399,"type":"feu_rouge","vitesse":50,"route":"N141","commune":"Terres-de-Haute-Charente","sens":"","id":null,"source":"radars-auto.com"},{"lat":45.64658,"lng":0.17284,"type":"feu_rouge","vitesse":null,"route":"D699","commune":"Angoulême","sens":"","id":null,"source":"radars-auto.com"},{"lat":45.67148,"lng":0.15952,"type":"feu_rouge","vitesse":50,"route":"D737","commune":"Gond-Pontouvre","sens":"","id":null,"source":"radars-auto.com"},{"lat":45.6791,"lng":0.16415,"type":"feu_rouge","vitesse":50,"route":"D57","commune":"Gond-Pontouvre","sens":"","id":null,"source":"radars-auto.com"},{"lat":45.67266,"lng":0.17393,"type":"feu_rouge","vitesse":null,"route":"D910","commune":"Gond-Pontouvre","sens":"","id":null,"source":"radars-auto.com"},{"lat":45.67688,"lng":0.2196,"type":"feu_rouge","vitesse":null,"route":"D941","commune":"Ruelle-sur-Touvre","sens":"","id":null,"source":"radars-auto.com"},{"lat":45.67254,"lng":-0.30663,"type":"feu_rouge","vitesse":null,"route":"D24","commune":"Châteaubernard","sens":"","id":null,"source":"radars-auto.com"},{"lat":45.6737,"lng":-0.32853,"type":"feu_rouge","vitesse":null,"route":"D731","commune":"Châteaubernard","sens":"","id":null,"source":"radars-auto.com"},{"lat":45.74128,"lng":0.38749,"type":"feu_rouge","vitesse":null,"route":"N141","commune":"La Rochefoucauld-en-Angoumois","sens":"","id":null,"source":"radars-auto.com"},{"lat":45.67209,"lng":0.15933,"type":"feu_rouge","vitesse":50,"route":"D737","commune":"Gond-Pontouvre","sens":"","id":null,"source":"radars-auto.com"},{"lat":45.65084,"lng":0.18472,"type":"feu_rouge","vitesse":50,"route":"D699","commune":"Angoulême","sens":"","id":null,"source":"radars-auto.com"},{"lat":45.64584,"lng":0.15215,"type":"feu_rouge","vitesse":null,"route":"","commune":"Angoulême","sens":"","id":null,"source":"radars-auto.com"},{"lat":45.73637,"lng":0.38659,"type":"feu_rouge","vitesse":null,"route":"N141","commune":"La Rochefoucauld-en-Angoumois","sens":"","id":null,"source":"radars-auto.com"},{"lat":45.7434,"lng":0.38747,"type":"feu_rouge","vitesse":null,"route":"N141","commune":"La Rochefoucauld-en-Angoumois","sens":"","id":null,"source":"radars-auto.com"},{"lat":45.74073,"lng":0.38768,"type":"feu_rouge","vitesse":null,"route":"N141","commune":"La Rochefoucauld-en-Angoumois","sens":"","id":null,"source":"radars-auto.com"},{"lat":45.88598,"lng":0.58249,"type":"feu_rouge","vitesse":50,"route":"N141","commune":"Terres-de-Haute-Charente","sens":"","id":null,"source":"radars-auto.com"},{"lat":45.74403,"lng":0.38727,"type":"feu_rouge","vitesse":null,"route":"N141","commune":"La Rochefoucauld-en-Angoumois","sens":"","id":null,"source":"radars-auto.com"},{"lat":45.67303,"lng":-0.30706,"type":"feu_rouge","vitesse":null,"route":"D24","commune":"Châteaubernard","sens":"","id":null,"source":"radars-auto.com"},{"lat":45.6733,"lng":-0.32858,"type":"feu_rouge","vitesse":null,"route":"D731","commune":"Châteaubernard","sens":"","id":null,"source":"radars-auto.com"},{"lat":45.61765,"lng":0.10098,"type":"double_face","vitesse":90,"route":"N10","commune":"La Couronne","sens":"","id":null,"source":"radars-auto.com"},{"lat":45.67098,"lng":0.13832,"type":"double_face","vitesse":90,"route":"N10","commune":"Saint-Yrieix-sur-Charente","sens":"","id":null,"source":"radars-auto.com"},{"lat":45.8512,"lng":0.50384,"type":"tourelle","vitesse":50,"route":"N141","commune":"Suaux","sens":"","id":null,"source":"radars-auto.com"},{"lat":46.06532,"lng":0.67561,"type":"tourelle","vitesse":90,"route":"D951","commune":"Lessac","sens":"","id":null,"source":"radars-auto.com"},{"lat":45.62784,"lng":0.20028,"type":"troncon","vitesse":90,"route":"D1000","commune":"Puymoyen","sens":"","id":null,"source":"radars-auto.com"},{"lat":45.98944,"lng":0.20066,"type":"fixe","vitesse":90,"route":"N10","commune":"Courcôme","sens":"","id":null,"source":"radars-auto.com"},{"lat":45.64316,"lng":0.20998,"type":"tourelle","vitesse":90,"route":"D1000","commune":"Soyaux","sens":"","id":null,"source":"radars-auto.com"},{"lat":45.67646,"lng":-0.03411,"type":"tourelle","vitesse":50,"route":"N141","commune":"Moulidars","sens":"","id":null,"source":"radars-auto.com"},{"lat":46.11791,"lng":-1.10701,"type":"double_face","vitesse":90,"route":"D137","commune":"Aytré","sens":"","id":null,"source":"radars-auto.com"},{"lat":46.06087,"lng":-0.93945,"type":"tourelle","vitesse":80,"route":"D5","commune":"Ciré-d\\'Aunis","sens":"","id":null,"source":"radars-auto.com"},{"lat":46.3186,"lng":-0.99233,"type":"tourelle","vitesse":70,"route":"D137","commune":"Marans","sens":"","id":null,"source":"radars-auto.com"},{"lat":45.63534,"lng":-0.97535,"type":"fixe","vitesse":80,"route":"N150","commune":"Médis","sens":"","id":null,"source":"radars-auto.com"},{"lat":45.91004,"lng":-0.96525,"type":"double_face","vitesse":90,"route":"D733","commune":"Échillais","sens":"","id":null,"source":"radars-auto.com"},{"lat":45.7351,"lng":-0.75127,"type":"double_sens","vitesse":70,"route":"D728","commune":"La Clisse","sens":"","id":null,"source":"radars-auto.com"},{"lat":45.5566,"lng":-0.5553,"type":"double_sens","vitesse":70,"route":"D137","commune":"Pons","sens":"","id":null,"source":"radars-auto.com"},{"lat":45.57305,"lng":-0.76024,"type":"tourelle","vitesse":80,"route":"D732","commune":"Saint-André-de-Lidon","sens":"","id":null,"source":"radars-auto.com"},{"lat":45.73026,"lng":-0.62301,"type":"double_face","vitesse":110,"route":"N141","commune":"Saintes","sens":"","id":null,"source":"radars-auto.com"},{"lat":45.7751,"lng":-0.69546,"type":"tourelle","vitesse":90,"route":"D137","commune":"Saint-Georges-des-Coteaux","sens":"","id":null,"source":"radars-auto.com"},{"lat":45.81961,"lng":-1.08296,"type":"tourelle","vitesse":80,"route":"D728","commune":"Saint-Just-Luzac","sens":"","id":null,"source":"radars-auto.com"},{"lat":45.72892,"lng":-0.58849,"type":"tourelle","vitesse":50,"route":"D24","commune":"Chaniers","sens":"","id":null,"source":"radars-auto.com"},{"lat":45.95821,"lng":-0.94218,"type":"tourelle","vitesse":80,"route":"D137","commune":"Rochefort","sens":"","id":null,"source":"radars-auto.com"},{"lat":46.14548,"lng":-0.71855,"type":"tourelle","vitesse":80,"route":"D911","commune":"Saint-Georges-du-Bois","sens":"","id":null,"source":"radars-auto.com"},{"lat":46.17373,"lng":-1.1505,"type":"feu_rouge","vitesse":null,"route":"","commune":"La Rochelle","sens":"","id":null,"source":"radars-auto.com"},{"lat":45.62438,"lng":-1.02381,"type":"feu_rouge","vitesse":30,"route":"","commune":"Royan","sens":"","id":null,"source":"radars-auto.com"},{"lat":45.6239,"lng":-1.02922,"type":"feu_rouge","vitesse":30,"route":"","commune":"Royan","sens":"","id":null,"source":"radars-auto.com"},{"lat":46.15514,"lng":-1.13582,"type":"feu_rouge","vitesse":null,"route":"","commune":"La Rochelle","sens":"","id":null,"source":"radars-auto.com"},{"lat":46.15473,"lng":-1.13594,"type":"feu_rouge","vitesse":null,"route":"","commune":"La Rochelle","sens":"","id":null,"source":"radars-auto.com"},{"lat":46.12069,"lng":-1.03588,"type":"tourelle","vitesse":80,"route":"D939","commune":"Salles-sur-Mer","sens":"","id":null,"source":"radars-auto.com"},{"lat":46.17315,"lng":-1.15034,"type":"feu_rouge","vitesse":null,"route":"","commune":"La Rochelle","sens":"","id":null,"source":"radars-auto.com"},{"lat":46.17276,"lng":-1.23708,"type":"troncon","vitesse":80,"route":"D735","commune":"Rivedoux-Plage","sens":"","id":null,"source":"radars-auto.com"},{"lat":46.12708,"lng":-1.10557,"type":"double_face","vitesse":90,"route":"N137","commune":"Aytré","sens":"","id":null,"source":"radars-auto.com"},{"lat":46.19953,"lng":-1.03547,"type":"double_face","vitesse":110,"route":"N11","commune":"Sainte-Soulle","sens":"","id":null,"source":"radars-auto.com"},{"lat":45.86297,"lng":-1.19657,"type":"troncon","vitesse":70,"route":"D26","commune":"Bourcefranc-le-Chapus","sens":"","id":null,"source":"radars-auto.com"},{"lat":45.30037,"lng":-0.2389,"type":"double_face","vitesse":110,"route":"N10","commune":"Chevanceaux","sens":"","id":null,"source":"radars-auto.com"},{"lat":45.91967,"lng":-0.52566,"type":"tourelle","vitesse":90,"route":"D150","commune":"Saint-Jean-d\\'Angély","sens":"","id":null,"source":"radars-auto.com"},{"lat":45.69024,"lng":-1.02394,"type":"tourelle","vitesse":90,"route":"D14","commune":"Mornac-sur-Seudre","sens":"","id":null,"source":"radars-auto.com"},{"lat":46.15435,"lng":-1.31248,"type":"tourelle","vitesse":70,"route":"D201","commune":"Sainte-Marie-de-Ré","sens":"","id":null,"source":"radars-auto.com"},{"lat":45.73369,"lng":-0.53766,"type":"tourelle","vitesse":70,"route":"N141","commune":"Chaniers","sens":"","id":null,"source":"radars-auto.com"},{"lat":46.19836,"lng":-1.49219,"type":"tourelle","vitesse":80,"route":"D735","commune":"Ars-en-Ré","sens":"","id":null,"source":"radars-auto.com"},{"lat":46.20154,"lng":-1.44694,"type":"tourelle","vitesse":70,"route":"D735","commune":"La Couarde-sur-Mer","sens":"","id":null,"source":"radars-auto.com"},{"lat":46.18793,"lng":-1.34365,"type":"tourelle","vitesse":70,"route":"D735","commune":"La Flotte","sens":"","id":null,"source":"radars-auto.com"},{"lat":45.719,"lng":-0.49496,"type":"tourelle","vitesse":80,"route":"N141","commune":"Saint-Sauvant","sens":"","id":null,"source":"radars-auto.com"},{"lat":45.88212,"lng":-0.52234,"type":"mobile","vitesse":90,"route":"D150","commune":"Asnières-la-Giraud","sens":"","id":null,"source":"radars-auto.com"},{"lat":46.25056,"lng":-1.01373,"type":"mobile","vitesse":90,"route":"D137","commune":"Andilly","sens":"","id":null,"source":"radars-auto.com"},{"lat":45.75454,"lng":-1.11945,"type":"mobile","vitesse":90,"route":"D14","commune":"Arvert","sens":"","id":null,"source":"radars-auto.com"},{"lat":45.84123,"lng":-0.94697,"type":"mobile","vitesse":90,"route":"D733","commune":"Saint-Jean-d\\'Angle","sens":"","id":null,"source":"radars-auto.com"},{"lat":47.20475,"lng":2.31972,"type":"tourelle","vitesse":90,"route":"D944","commune":"Allogny","sens":"","id":null,"source":"radars-auto.com"},{"lat":47.1095,"lng":2.41381,"type":"fixe","vitesse":50,"route":"D940","commune":"Bourges","sens":"","id":null,"source":"radars-auto.com"},{"lat":47.1142,"lng":2.61167,"type":"tourelle","vitesse":80,"route":"N151","commune":"Brécy","sens":"","id":null,"source":"radars-auto.com"},{"lat":46.73616,"lng":2.36251,"type":"tourelle","vitesse":90,"route":"D925","commune":"Marçais","sens":"","id":null,"source":"radars-auto.com"},{"lat":47.07568,"lng":2.27508,"type":"double_face","vitesse":130,"route":"A71","commune":"Marmagne","sens":"","id":null,"source":"radars-auto.com"},{"lat":47.18857,"lng":2.16545,"type":"double_face","vitesse":130,"route":"A71","commune":"Foëcy","sens":"","id":null,"source":"radars-auto.com"},{"lat":47.08949,"lng":2.39159,"type":"tourelle","vitesse":50,"route":"","commune":"Bourges","sens":"","id":null,"source":"radars-auto.com"},{"lat":47.36654,"lng":2.4323,"type":"fixe","vitesse":50,"route":"D940","commune":"La Chapelle-d\\'Angillon","sens":"","id":null,"source":"radars-auto.com"},{"lat":46.99344,"lng":2.16904,"type":"tourelle","vitesse":50,"route":"N151","commune":"Civray","sens":"","id":null,"source":"radars-auto.com"},{"lat":46.99612,"lng":2.5086,"type":"tourelle","vitesse":70,"route":"D2076","commune":"Saint-Just","sens":"","id":null,"source":"radars-auto.com"},{"lat":47.01317,"lng":2.72267,"type":"tourelle","vitesse":70,"route":"D976","commune":"Bengy-sur-Craon","sens":"","id":null,"source":"radars-auto.com"},{"lat":47.01205,"lng":2.72746,"type":"tourelle","vitesse":70,"route":"D976","commune":"Bengy-sur-Craon","sens":"","id":null,"source":"radars-auto.com"},{"lat":47.07211,"lng":2.39391,"type":"feu_rouge","vitesse":null,"route":"N76","commune":"Bourges","sens":"","id":null,"source":"radars-auto.com"},{"lat":47.07561,"lng":2.40641,"type":"feu_rouge","vitesse":50,"route":"","commune":"Bourges","sens":"","id":null,"source":"radars-auto.com"},{"lat":47.08259,"lng":2.38896,"type":"feu_rouge","vitesse":50,"route":"","commune":"Bourges","sens":"","id":null,"source":"radars-auto.com"},{"lat":47.10469,"lng":2.42491,"type":"feu_rouge","vitesse":50,"route":"","commune":"Bourges","sens":"","id":null,"source":"radars-auto.com"},{"lat":47.10293,"lng":2.40925,"type":"feu_rouge","vitesse":null,"route":"D940","commune":"Bourges","sens":"","id":null,"source":"radars-auto.com"},{"lat":47.06179,"lng":2.40937,"type":"feu_rouge","vitesse":50,"route":"","commune":"Bourges","sens":"","id":null,"source":"radars-auto.com"},{"lat":47.08202,"lng":2.38925,"type":"feu_rouge","vitesse":50,"route":"","commune":"Bourges","sens":"","id":null,"source":"radars-auto.com"},{"lat":47.09955,"lng":2.3813,"type":"feu_rouge","vitesse":null,"route":"D2076","commune":"Saint-Doulchard","sens":"","id":null,"source":"radars-auto.com"},{"lat":47.10008,"lng":2.38096,"type":"feu_rouge","vitesse":null,"route":"D2076","commune":"Saint-Doulchard","sens":"","id":null,"source":"radars-auto.com"},{"lat":47.10346,"lng":2.40945,"type":"feu_rouge","vitesse":null,"route":"D940","commune":"Bourges","sens":"","id":null,"source":"radars-auto.com"},{"lat":47.07207,"lng":2.39363,"type":"feu_rouge","vitesse":50,"route":"","commune":"Bourges","sens":"","id":null,"source":"radars-auto.com"},{"lat":47.29593,"lng":2.78406,"type":"tourelle","vitesse":90,"route":"D955","commune":"Veaugues","sens":"","id":null,"source":"radars-auto.com"},{"lat":47.0791,"lng":2.29856,"type":"tourelle","vitesse":80,"route":"D23","commune":"Marmagne","sens":"","id":null,"source":"radars-auto.com"},{"lat":47.23842,"lng":2.03025,"type":"passage_niveau","vitesse":30,"route":"D2076","commune":"Vierzon","sens":"","id":null,"source":"radars-auto.com"},{"lat":47.2939,"lng":2.21227,"type":"tourelle","vitesse":80,"route":"D926","commune":"Vouzeron","sens":"","id":null,"source":"radars-auto.com"},{"lat":47.2836,"lng":2.19036,"type":"fixe","vitesse":80,"route":"D926","commune":"Vouzeron","sens":"","id":null,"source":"radars-auto.com"},{"lat":46.73443,"lng":2.52413,"type":"tourelle","vitesse":50,"route":"D6","commune":"Saint-Amand-Montrond","sens":"","id":null,"source":"radars-auto.com"},{"lat":46.81892,"lng":3.02778,"type":"tourelle","vitesse":50,"route":"D2076","commune":"Mornay-sur-Allier","sens":"","id":null,"source":"radars-auto.com"},{"lat":47.21389,"lng":2.10154,"type":"tourelle","vitesse":50,"route":"","commune":"Vierzon","sens":"","id":null,"source":"radars-auto.com"},{"lat":46.76326,"lng":2.81984,"type":"mobile","vitesse":50,"route":"D951","commune":"Saint-Aignan-des-Noyers","sens":"","id":null,"source":"radars-auto.com"},{"lat":45.209,"lng":1.68247,"type":"tourelle","vitesse":90,"route":"D1089","commune":"Cornil","sens":"","id":null,"source":"radars-auto.com"},{"lat":45.1237,"lng":1.55454,"type":"tourelle","vitesse":90,"route":"D38","commune":"Cosnac","sens":"","id":null,"source":"radars-auto.com"},{"lat":45.2222,"lng":1.4275,"type":"tourelle","vitesse":70,"route":"D901","commune":"Allassac","sens":"","id":null,"source":"radars-auto.com"},{"lat":45.46998,"lng":2.36595,"type":"tourelle","vitesse":90,"route":"D979","commune":"Saint-Victour","sens":"","id":null,"source":"radars-auto.com"},{"lat":45.1986,"lng":1.83349,"type":"tourelle","vitesse":90,"route":"D1120","commune":"Lagarde-Enval","sens":"","id":null,"source":"radars-auto.com"},{"lat":45.21657,"lng":1.5136,"type":"double_face","vitesse":110,"route":"A20","commune":"Donzenac","sens":"","id":null,"source":"radars-auto.com"},{"lat":45.43272,"lng":2.04454,"type":"double_face","vitesse":130,"route":"A89","commune":"Soudeilles","sens":"","id":null,"source":"radars-auto.com"},{"lat":45.3658,"lng":1.99313,"type":"fixe","vitesse":90,"route":"D1089","commune":"Rosiers-d\\'Égletons","sens":"","id":null,"source":"radars-auto.com"},{"lat":45.48439,"lng":1.38981,"type":"tourelle","vitesse":90,"route":"D901","commune":"Lubersac","sens":"","id":null,"source":"radars-auto.com"},{"lat":45.10996,"lng":1.50577,"type":"troncon","vitesse":110,"route":"A20","commune":"Noailles","sens":"","id":null,"source":"radars-auto.com"},{"lat":45.13152,"lng":1.49169,"type":"troncon","vitesse":110,"route":"A20","commune":"Brive-la-Gaillarde","sens":"","id":null,"source":"radars-auto.com"},{"lat":45.22964,"lng":1.42056,"type":"passage_niveau","vitesse":70,"route":"D17","commune":"Allassac","sens":"","id":null,"source":"radars-auto.com"},{"lat":45.15758,"lng":1.52417,"type":"feu_rouge","vitesse":50,"route":"","commune":"Brive-la-Gaillarde","sens":"","id":null,"source":"radars-auto.com"},{"lat":45.16088,"lng":1.53325,"type":"feu_rouge","vitesse":30,"route":"","commune":"Brive-la-Gaillarde","sens":"","id":null,"source":"radars-auto.com"},{"lat":45.15736,"lng":1.5234,"type":"feu_rouge","vitesse":50,"route":"","commune":"Brive-la-Gaillarde","sens":"","id":null,"source":"radars-auto.com"},{"lat":45.4634,"lng":1.50199,"type":"double_sens","vitesse":90,"route":"D902","commune":"Saint-Ybard","sens":"","id":null,"source":"radars-auto.com"},{"lat":45.33602,"lng":1.89738,"type":"double_face","vitesse":130,"route":"A89","commune":"Saint-Priest-de-Gimel","sens":"","id":null,"source":"radars-auto.com"},{"lat":45.3722,"lng":1.57365,"type":"double_face","vitesse":130,"route":"A20","commune":"Espartignac","sens":"","id":null,"source":"radars-auto.com"},{"lat":45.52725,"lng":2.33914,"type":"double_face","vitesse":130,"route":"A89","commune":"Saint-Exupéry-les-Roches","sens":"","id":null,"source":"radars-auto.com"},{"lat":45.46224,"lng":1.51284,"type":"troncon","vitesse":130,"route":"A20","commune":"Uzerche","sens":"","id":null,"source":"radars-auto.com"},{"lat":45.22975,"lng":1.42127,"type":"passage_niveau","vitesse":70,"route":"D17","commune":"Allassac","sens":"","id":null,"source":"radars-auto.com"},{"lat":45.38159,"lng":1.67126,"type":"tourelle","vitesse":90,"route":"D1120","commune":"Saint-Jal","sens":"","id":null,"source":"radars-auto.com"},{"lat":45.13746,"lng":1.88187,"type":"tourelle","vitesse":90,"route":"D1120","commune":"Saint-Chamant","sens":"","id":null,"source":"radars-auto.com"},{"lat":45.26755,"lng":1.71643,"type":"mobile","vitesse":90,"route":"D9","commune":"Chameyrat","sens":"","id":null,"source":"radars-auto.com"},{"lat":41.9319,"lng":8.75655,"type":"tourelle","vitesse":50,"route":"T21","commune":"Ajaccio","sens":"","id":null,"source":"radars-auto.com"},{"lat":41.90883,"lng":8.71533,"type":"tourelle","vitesse":50,"route":"D111","commune":"Ajaccio","sens":"","id":null,"source":"radars-auto.com"},{"lat":41.58108,"lng":9.2701,"type":"tourelle","vitesse":70,"route":"T10","commune":"Porto-Vecchio","sens":"","id":null,"source":"radars-auto.com"},{"lat":41.41785,"lng":9.1787,"type":"tourelle","vitesse":70,"route":"T10","commune":"Bonifacio","sens":"","id":null,"source":"radars-auto.com"},{"lat":41.6525,"lng":9.30044,"type":"tourelle","vitesse":80,"route":"T10","commune":"San Gavino di Carbini","sens":"","id":null,"source":"radars-auto.com"},{"lat":41.6638,"lng":8.91866,"type":"tourelle","vitesse":70,"route":"T40","commune":"Propriano","sens":"","id":null,"source":"radars-auto.com"},{"lat":41.9617,"lng":8.80901,"type":"tourelle","vitesse":50,"route":"T22","commune":"Sarrola-Carcopino","sens":"","id":null,"source":"radars-auto.com"},{"lat":42.04086,"lng":8.75482,"type":"tourelle","vitesse":70,"route":"D81","commune":"Calcatoggio","sens":"","id":null,"source":"radars-auto.com"},{"lat":41.93351,"lng":8.74416,"type":"tourelle","vitesse":50,"route":"T21","commune":"Ajaccio","sens":"","id":null,"source":"radars-auto.com"},{"lat":41.48917,"lng":9.06008,"type":"tourelle","vitesse":50,"route":"T40","commune":"Pianottoli-Caldarello","sens":"","id":null,"source":"radars-auto.com"},{"lat":41.51029,"lng":9.14978,"type":"tourelle","vitesse":80,"route":"D859","commune":"Figari","sens":"","id":null,"source":"radars-auto.com"},{"lat":42.47849,"lng":9.48154,"type":"fixe","vitesse":80,"route":"N198","commune":"Sorbo-Ocagnano","sens":"","id":null,"source":"radars-auto.com"},{"lat":42.5616,"lng":8.80249,"type":"double_sens","vitesse":70,"route":"T30","commune":"Lumio","sens":"","id":null,"source":"radars-auto.com"},{"lat":42.61111,"lng":9.48238,"type":"double_sens","vitesse":70,"route":"D107","commune":"Biguglia","sens":"","id":null,"source":"radars-auto.com"},{"lat":42.5869,"lng":9.50566,"type":"fixe","vitesse":70,"route":"D107","commune":"Borgo","sens":"","id":null,"source":"radars-auto.com"},{"lat":41.96028,"lng":9.39676,"type":"tourelle","vitesse":70,"route":"T10","commune":"Ventiseri","sens":"","id":null,"source":"radars-auto.com"},{"lat":42.50653,"lng":9.36542,"type":"fixe","vitesse":70,"route":"N193","commune":"Volpajola","sens":"","id":null,"source":"radars-auto.com"},{"lat":42.511,"lng":9.38202,"type":"fixe","vitesse":70,"route":"N193","commune":"Volpajola","sens":"","id":null,"source":"radars-auto.com"},{"lat":42.26661,"lng":9.54896,"type":"fixe","vitesse":70,"route":"N198","commune":"San-Giuliano","sens":"","id":null,"source":"radars-auto.com"},{"lat":42.25725,"lng":9.54673,"type":"fixe","vitesse":70,"route":"T10","commune":"San-Giuliano","sens":"","id":null,"source":"radars-auto.com"},{"lat":42.31445,"lng":9.5414,"type":"double_sens","vitesse":80,"route":"T10","commune":"Cervione","sens":"","id":null,"source":"radars-auto.com"},{"lat":42.48034,"lng":9.48103,"type":"fixe","vitesse":80,"route":"N198","commune":"Sorbo-Ocagnano","sens":"","id":null,"source":"radars-auto.com"},{"lat":47.3368,"lng":4.9557,"type":"double_face","vitesse":110,"route":"A38","commune":"Plombières-lès-Dijon","sens":"","id":null,"source":"radars-auto.com"},{"lat":47.0877,"lng":4.75635,"type":"double_face","vitesse":110,"route":"A6","commune":"Bessey-en-Chaume","sens":"","id":null,"source":"radars-auto.com"},{"lat":47.24973,"lng":5.08845,"type":"tourelle","vitesse":80,"route":"M968","commune":"Ouges","sens":"","id":null,"source":"radars-auto.com"},{"lat":47.3368,"lng":5.03341,"type":"fixe","vitesse":50,"route":"","commune":"Fontaine-lès-Dijon","sens":"","id":null,"source":"radars-auto.com"},{"lat":47.14766,"lng":4.48921,"type":"double_sens","vitesse":90,"route":"D981","commune":"Mimeure","sens":"","id":null,"source":"radars-auto.com"},{"lat":47.3026,"lng":4.50289,"type":"double_face","vitesse":130,"route":"A6","commune":"Éguilly","sens":"","id":null,"source":"radars-auto.com"},{"lat":47.31663,"lng":5.07982,"type":"double_face","vitesse":90,"route":"N274","commune":"Dijon","sens":"","id":null,"source":"radars-auto.com"},{"lat":47.64481,"lng":5.17893,"type":"double_face","vitesse":130,"route":"A31","commune":"Selongey","sens":"","id":null,"source":"radars-auto.com"},{"lat":47.30283,"lng":4.50325,"type":"double_face","vitesse":130,"route":"A6","commune":"Éguilly","sens":"","id":null,"source":"radars-auto.com"},{"lat":47.43734,"lng":5.111,"type":"tourelle","vitesse":90,"route":"D974","commune":"Marsannay-le-Bois","sens":"","id":null,"source":"radars-auto.com"},{"lat":47.31627,"lng":5.07176,"type":"fixe","vitesse":50,"route":"D107","commune":"Dijon","sens":"","id":null,"source":"radars-auto.com"},{"lat":47.25638,"lng":5.05894,"type":"voiture","vitesse":70,"route":"M996","commune":"Fénay","sens":"","id":null,"source":"radars-auto.com"},{"lat":47.33613,"lng":5.05974,"type":"voiture","vitesse":50,"route":"","commune":"Dijon","sens":"","id":null,"source":"radars-auto.com"},{"lat":47.33653,"lng":5.05723,"type":"voiture","vitesse":null,"route":"","commune":"Dijon","sens":"","id":null,"source":"radars-auto.com"},{"lat":47.27041,"lng":5.00136,"type":"tourelle","vitesse":70,"route":"D974","commune":"Marsannay-la-Côte","sens":"","id":null,"source":"radars-auto.com"},{"lat":47.34156,"lng":5.05108,"type":"feu_rouge","vitesse":null,"route":"","commune":"Dijon","sens":"","id":null,"source":"radars-auto.com"},{"lat":47.34092,"lng":5.05201,"type":"feu_rouge","vitesse":null,"route":"","commune":"Dijon","sens":"","id":null,"source":"radars-auto.com"},{"lat":47.31372,"lng":5.01387,"type":"voiture","vitesse":50,"route":"","commune":"Dijon","sens":"","id":null,"source":"radars-auto.com"},{"lat":47.30933,"lng":5.03784,"type":"feu_rouge","vitesse":null,"route":"N5","commune":"Dijon","sens":"","id":null,"source":"radars-auto.com"},{"lat":47.31605,"lng":5.04458,"type":"feu_rouge","vitesse":null,"route":"","commune":"Dijon","sens":"","id":null,"source":"radars-auto.com"},{"lat":47.31333,"lng":5.01348,"type":"feu_rouge","vitesse":null,"route":"","commune":"Dijon","sens":"","id":null,"source":"radars-auto.com"},{"lat":47.30526,"lng":5.04972,"type":"feu_rouge","vitesse":null,"route":"","commune":"Dijon","sens":"","id":null,"source":"radars-auto.com"},{"lat":47.21842,"lng":5.25682,"type":"fixe","vitesse":50,"route":"D905","commune":"Longeault-Pluvault","sens":"","id":null,"source":"radars-auto.com"},{"lat":46.9353,"lng":4.66913,"type":"tourelle","vitesse":90,"route":"D906","commune":"La Rochepot","sens":"","id":null,"source":"radars-auto.com"},{"lat":46.97861,"lng":4.70592,"type":"troncon","vitesse":90,"route":"D973","commune":"Auxey-Duresses","sens":"","id":null,"source":"radars-auto.com"},{"lat":47.34458,"lng":4.99035,"type":"troncon","vitesse":70,"route":"N274","commune":"Talant","sens":"","id":null,"source":"radars-auto.com"},{"lat":47.38541,"lng":5.03448,"type":"tourelle","vitesse":90,"route":"D903","commune":"Asnières-lès-Dijon","sens":"","id":null,"source":"radars-auto.com"},{"lat":46.9987,"lng":4.79807,"type":"tourelle","vitesse":90,"route":"D974","commune":"Volnay","sens":"","id":null,"source":"radars-auto.com"},{"lat":47.2901,"lng":5.00802,"type":"urbain","vitesse":50,"route":"","commune":"Chenôve","sens":"","id":null,"source":"radars-auto.com"},{"lat":47.56281,"lng":5.2119,"type":"tourelle","vitesse":50,"route":"D974","commune":"Orville","sens":"","id":null,"source":"radars-auto.com"},{"lat":47.43083,"lng":4.51781,"type":"mobile","vitesse":90,"route":"D905","commune":"Posanges","sens":"","id":null,"source":"radars-auto.com"},{"lat":47.23062,"lng":5.11901,"type":"mobile","vitesse":80,"route":"M968","commune":"Bretenière","sens":"","id":null,"source":"radars-auto.com"},{"lat":47.2075,"lng":4.97144,"type":"mobile","vitesse":90,"route":"D974","commune":"Gevrey-Chambertin","sens":"","id":null,"source":"radars-auto.com"},{"lat":47.00522,"lng":5.06251,"type":"mobile","vitesse":90,"route":"D973","commune":"Labergement-lès-Seurre","sens":"","id":null,"source":"radars-auto.com"},{"lat":47.38175,"lng":4.55834,"type":"mobile","vitesse":90,"route":"D905","commune":"Vitteaux","sens":"","id":null,"source":"radars-auto.com"},{"lat":47.58985,"lng":4.41427,"type":"mobile","vitesse":90,"route":"D905","commune":"Benoisey","sens":"","id":null,"source":"radars-auto.com"},{"lat":47.24302,"lng":5.20776,"type":"mobile","vitesse":90,"route":"D905","commune":"Genlis","sens":"","id":null,"source":"radars-auto.com"},{"lat":47.48521,"lng":4.31962,"type":"mobile","vitesse":90,"route":"D980","commune":"Semur-en-Auxois","sens":"","id":null,"source":"radars-auto.com"},{"lat":47.83843,"lng":4.5491,"type":"mobile","vitesse":90,"route":"D980","commune":"Châtillon-sur-Seine","sens":"","id":null,"source":"radars-auto.com"},